id,location_name,latitude,longitude,country_code,population,eccentricity,closnesscentrality,harmonicclosnesscentrality,betweenesscentrality,city_or_region,connection_order,conflict_point
1,Shanghai,31.22222,121.45806,CN,22315474,18,0.128802918,0.218922152,10311.9932,,,
2,Buenos Aires,-34.61315,-58.37723,AR,13076300,14,0.133254717,0.210080831,100.7195935,,,
3,Mumbai,19.07283,72.88261,IN,12691836,13,0.16472811,0.241617173,1537.410837,,,
4,Mexico City,19.42847,-99.12766,MX,12294193,10,0.214910612,0.335311842,154.2698364,,,
5,Beijing,39.9075,116.39723,CN,11716620,18,0.134926008,0.209764119,2176.67027,,,
6,Karachi,24.8608,67.0104,PK,11624219,12,0.179941954,0.242972596,14898.4891,,,
7,Istanbul,41.01384,28.94966,TR,11174257,14,0.191528798,0.311019296,4591.12173,,,
8,Tianjin,39.14222,117.17667,CN,11090314,18,0.13512859,0.21352756,4194.502572,,,
9,Guangzhou,23.11667,113.25,CN,11071424,17,0.129997204,0.202100175,2499.012805,,,
10,Delhi,28.65195,77.23149,IN,10927986,13,0.172584436,0.260639902,1843.59981,,,
11,Moscow,55.75222,37.61556,RU,10381222,14,0.188832487,0.290313613,4216.976102,,,
12,Shenzhen,22.54554,114.0683,CN,10358381,17,0.126473255,0.197626107,2189.539499,,,
13,Dhaka,23.7104,90.40744,BD,10356500,14,0.159219312,0.232557232,2329.165466,,,
14,Seoul,37.566,126.9784,KR,10349312,18,0.127234586,0.208437983,2586.949727,,,
15,Sao Paulo,-23.5475,-46.63611,BR,10021295,14,0.139162562,0.261951657,178.0081872,,,
16,Wuhan,30.58333,114.26667,CN,9785388,17,0.135063175,0.218051518,5354.132073,,,
17,Lagos,6.45407,3.39467,NG,9000000,18,0.100765675,0.139284802,2703.177055,,,
18,Jakarta,-6.21462,106.84513,ID,8540121,19,0.102671671,0.13852381,594.6192047,,,
19,Tokyo,35.6895,139.69171,JP,8336599,19,0.111926826,0.173843391,26.03971419,,,
20,New York City,40.71427,-74.00597,US,8175133,11,0.205978855,0.372866273,135.5568159,,,
21,Dongguan,23.01797,113.74866,CN,8000000,17,0.130179171,0.202996233,3621.382957,,,
22,Taipei,25.04776,121.53185,TW,7871900,18,0.123287671,0.195755511,1406.024935,,,
23,Kinshasa,-4.32758,15.31357,CD,7785965,18,0.101116266,0.127451298,1581.813181,,,
24,Lima,-12.04318,-77.02824,PE,7737002,11,0.177032743,0.216781532,3092.975787,,,
25,Cairo,30.06263,31.24967,EG,7734614,14,0.178525723,0.244251413,2514.412548,,,
26,Bogota,4.60971,-74.08175,CO,7674366,9,0.219887138,0.27834738,5846.932251,,,
27,London,51.50853,-0.12574,GB,7556900,16,0.162473795,0.342640953,119.2484985,,,
28,Chongqing,29.56278,106.55278,CN,7457600,16,0.137709773,0.203947101,2161.191957,,,
29,Chengdu,30.66667,104.06667,CN,7415590,16,0.142412332,0.209875192,39808.49304,,,
30,Baghdad,33.34058,44.40088,IQ,7216000,12,0.19654808,0.264650732,10299.15544,,,
31,Nanjing,32.06167,118.77778,CN,7165292,17,0.133193297,0.220097554,22708.81418,,,
32,Tehran,35.69439,51.42151,IR,7153309,11,0.197550096,0.255152304,66256.66078,,,
33,Nanchong,30.79508,106.08473,CN,7150000,16,0.138695566,0.204690415,3280.42822,,,
34,Hong Kong,22.27832,114.17469,HK,7012738,17,0.126301494,0.196909261,2991.334554,,,
35,Xi'an,34.25833,108.92861,CN,6501190,17,0.135122046,0.208601966,2203.489786,,,
36,Lahore,31.558,74.35071,PK,6310888,13,0.182079227,0.257672245,8180.465798,,,
37,Shenyang,41.79222,123.43278,CN,6255921,18,0.13256046,0.203789977,6956.581838,,,
38,Hangzhou,30.29365,120.16142,CN,6241971,18,0.128595133,0.213725019,3116.582808,,,
39,Rio de Janeiro,-22.90278,-43.2075,BR,6023699,14,0.133870395,0.249025115,93.51184008,,,
40,Harbin,45.75,126.65,CN,5878939,18,0.125647377,0.182308029,263.237911,,,
41,Tai'an,36.18528,117.12,CN,5499000,18,0.131189166,0.215530564,1921.202854,,,
42,Suzhou,31.30408,120.59538,CN,5345961,18,0.130795556,0.220950021,9135.142388,,,
43,Shantou,23.36814,116.71479,CN,5329024,17,0.126720262,0.202291579,18223.69174,,,
44,Bangkok,13.75398,100.50144,TH,5104476,16,0.133358826,0.19216259,6416.271865,,,
45,Bengaluru,12.97194,77.59369,IN,5104047,14,0.151572771,0.221270038,183.0624943,,,
46,Saint Petersburg,59.93863,30.31413,RU,5028000,14,0.180290792,0.276199123,910.7284363,,,
47,Santiago,-33.45694,-70.64827,CL,4837295,14,0.132132834,0.190686988,297.1747847,,,
48,Kolkata,22.56263,88.36304,IN,4631392,14,0.16117851,0.240537831,7272.365651,,,
49,Sydney,-33.86785,151.20732,AU,4627345,2,0.95,0.973684211,16.82324017,,,
50,Yangon,16.80528,96.15611,MM,4477638,15,0.144950125,0.202248811,7324.822299,,,
51,Jinan,36.66833,116.99722,CN,4335989,18,0.131201505,0.215650038,2014.931658,,,
52,Chennai,13.08784,80.27847,IN,4328063,14,0.152559055,0.222879386,438.100366,,,
53,Zhengzhou,34.75778,113.64861,CN,4253913,17,0.135971539,0.214706931,4497.484401,,,
54,Melbourne,-37.814,144.96332,AU,4246375,2,0.76,0.842105263,1.203159633,,,
55,Riyadh,24.68773,46.72185,SA,4205961,12,0.182043586,0.224194816,282385.8717,,,
56,Changchun,43.88,125.32278,CN,4193073,18,0.131417805,0.195746938,4697.248385,,,
57,Dalian,38.91222,121.60222,CN,4087733,18,0.130556855,0.212693476,4373.626821,,,
58,Los Angeles,34.05223,-118.24368,US,3971883,12,0.167159763,0.25485056,45.48016918,,,
59,Chittagong,22.3384,91.83168,BD,3920222,15,0.154767848,0.229548368,16011.06749,,,
60,Kunming,25.03889,102.71833,CN,3855346,16,0.14236873,0.209123434,30661.91124,,,
61,Alexandria,31.21564,29.95527,EG,3811516,14,0.181416217,0.255237076,34157.15284,,,
62,Ahmedabad,23.02579,72.58727,IN,3719710,13,0.174724449,0.263936682,6272.30267,,,
63,Qingdao,36.06488,120.38042,CN,3718835,18,0.13015488,0.215748208,3573.678324,,,
64,Busan,35.10278,129.04028,KR,3678555,19,0.122572709,0.20580154,8756.068315,,,
65,Abidjan,5.30966,-4.01266,CI,3677115,19,0.091758206,0.118970691,1095.609103,,,
66,Kano,12.00012,8.51672,NG,3626068,17,0.110815427,0.149858453,4242.804426,,,
67,Foshan,23.02677,113.13148,CN,3600000,17,0.129966926,0.201682015,2455.780696,,,
68,Hyderabad,17.38405,78.45636,IN,3597816,13,0.163157895,0.248782826,1070.885635,,,
69,Puyang,29.45679,119.88872,CN,3590000,18,0.124320471,0.207192237,2068.31845,,,
70,Yokohama,35.43333,139.65,JP,3574443,19,0.111931317,0.174022602,28.19107323,,,
71,Ibadan,7.37756,3.90591,NG,3565108,18,0.100769314,0.139464013,2440.90592,,,
72,Singapore,1.28967,103.85007,SG,3547809,18,0.113271893,0.157770231,11948.89648,,,
73,Wuxi,31.56887,120.28857,CN,3543719,18,0.130813953,0.221487656,14013.31974,,,
74,Xiamen,24.47979,118.08187,CN,3531347,17,0.126749046,0.203181663,3930.171397,,,
75,Ankara,39.91987,32.85427,TR,3517182,13,0.197802198,0.304488931,19666.65662,,,
76,Tianshui,34.57952,105.74238,CN,3500000,16,0.138105138,0.203963962,7153.799422,,,
77,Ningbo,29.87819,121.54945,CN,3491597,18,0.124492437,0.21198913,7293.825692,,,
78,Ho Chi Minh City,10.82302,106.62965,VN,3467331,17,0.125800343,0.177034516,328.593796,,,
79,Shiyan,32.6475,110.77806,CN,3460000,17,0.135338346,0.212604356,3737.560606,,,
80,Cape Town,-33.92584,18.42322,ZA,3433441,21,0.075442107,0.088517619,6.441190476,,,
81,Taiyuan,37.86944,112.56028,CN,3426519,17,0.141108638,0.211885709,35709.69607,,,
82,Berlin,52.52437,13.41053,DE,3426354,15,0.181652451,0.376282619,1943.774979,,,
83,Tangshan,39.63333,118.18333,CN,3372102,18,0.135069713,0.212631503,4514.973492,,,
84,Hefei,31.86389,117.28083,CN,3310268,17,0.132793908,0.212749884,3451.430872,,,
85,Madrid,40.4165,-3.70256,ES,3255944,16,0.151186735,0.270603216,159.6414914,,,
86,Pyongyang,39.03385,125.75432,KP,3222000,18,0.128199237,0.20918025,8550.615209,,,
87,Casablanca,33.58831,-7.61138,MA,3144909,17,0.133845047,0.211631456,792.4913347,,,
88,Zibo,36.79056,118.06333,CN,3129228,18,0.13080782,0.215751165,1916.926557,,,
89,Zhongshan,21.31992,110.5723,CN,3121275,17,0.12911287,0.193614331,933.1874866,,,
90,Durban,-29.8579,31.0292,ZA,3120282,20,0.081555101,0.100983133,0.271264368,,,
91,Changsha,28.19874,112.97087,CN,3093980,17,0.130887596,0.216478043,7638.486303,,,
92,Kabul,34.52813,69.17233,AF,3043532,12,0.189203852,0.250457093,59017.72145,,,
93,UEruemqi,43.80096,87.60046,CN,3029372,14,0.165196282,0.191980574,5022.863372,,,
94,Caracas,10.48801,-66.87919,VE,3000000,8,0.211689771,0.266974294,743.372654,,,
95,Pune,18.51957,73.85535,IN,2935744,13,0.167135925,0.247409544,4393.015117,,,
96,Surat,21.19594,72.83023,IN,2894504,13,0.168488435,0.251117515,1359.638441,,,
97,Jeddah,21.54238,39.19797,SA,2867446,13,0.168732991,0.205818277,157868.7967,,,
98,Shijiazhuang,38.04139,114.47861,CN,2834942,17,0.137920807,0.211762253,2583.439074,,,
99,Kanpur,26.46523,80.34975,IN,2823249,13,0.173680279,0.267901522,19569.07217,,,
100,Kiev,50.45466,30.5238,UA,2797553,14,0.191634041,0.323338766,4796.242863,,,
101,Luanda,-8.83682,13.23432,AO,2776168,18,0.100765675,0.122630509,33.99233653,,,
102,Quezon City,14.6488,121.0509,PH,2761720,19,0.110486298,0.170616186,1201.595645,,,
103,Addis Ababa,9.02497,38.74689,ET,2757729,15,0.137215364,0.167890593,4914.414459,,,
104,Nairobi,-1.28333,36.81667,KE,2750547,16,0.11774636,0.148035961,4890.558978,,,
105,Chicago,41.85003,-87.65005,US,2720546,11,0.214869747,0.387482793,470.9810566,,,
106,Salvador,-12.97111,-38.51083,BR,2711840,13,0.145132289,0.233724493,408.0474299,,,
107,Jaipur,26.91962,75.78781,IN,2711758,13,0.178537147,0.272100475,5530.388821,,,
108,Dar es Salaam,-6.82349,39.26951,TZ,2698652,17,0.106464169,0.134310345,358.8102983,,,
109,Lanzhou,36.05701,103.83987,CN,2628426,17,0.141344546,0.197491188,3612.943436,,,
110,Incheon,37.45646,126.70515,KR,2628000,18,0.1272578,0.209035355,2641.682551,,,
111,Yunfu,22.92833,112.03954,CN,2612800,17,0.130209549,0.201676042,7809.132181,,,
112,Basrah,30.50852,47.7804,IQ,2600000,12,0.192307692,0.243106849,2186.091171,,,
113,Toronto,43.70011,-79.4163,CA,2600000,11,0.207796984,0.389282203,132.2642046,,,
114,Navi Mumbai,19.03681,73.01582,IN,2600000,13,0.164747564,0.241975596,1951.867431,,,
115,Osaka,34.69374,135.50218,JP,2592413,19,0.115042058,0.185851242,177.3659777,,,
116,Mogadishu,2.03711,45.34375,SO,2587183,15,0.127589518,0.15050068,4851.251838,,,
117,Daegu,35.87028,128.59111,KR,2566540,18,0.124977603,0.207157229,8834.80865,,,
118,Faisalabad,31.41667,73.08333,PK,2506595,12,0.18556701,0.258911892,12304.28776,,,
119,Izmir,38.41273,27.13838,TR,2500603,14,0.192559873,0.303383595,18584.0842,,,
120,Dakar,14.6937,-17.44406,SN,2476400,20,0.08362056,0.099177004,64.92254243,,,
121,Lucknow,26.83928,80.92313,IN,2472011,13,0.175770176,0.269006233,36417.40971,,,
122,Giza,30.00808,31.21093,EG,2443203,14,0.178422971,0.243743647,1809.189184,,,
123,Fortaleza,-3.71722,-38.54306,BR,2400000,13,0.14117941,0.207529803,32.87369283,,,
124,Cali,3.43722,-76.5225,CO,2392877,9,0.217558722,0.276559559,7265.844564,,,
125,Surabaya,-7.24917,112.75083,ID,2374658,19,0.098638855,0.133085005,544.6822011,,,
126,Belo Horizonte,-19.92083,-43.93778,BR,2373224,14,0.138412543,0.256538678,365.7673477,,,
127,Nanchang,28.68396,115.85306,CN,2357839,17,0.127222982,0.208976752,887.0370905,,,
128,Rome,41.89193,12.51133,IT,2318895,15,0.173593828,0.335081329,2742.846568,,,
129,Mashhad,36.31559,59.56796,IR,2307177,11,0.196368243,0.246423102,155050.4717,,,
130,Brooklyn,40.6501,-73.94958,US,2300664,11,0.205978855,0.372866273,135.5568159,,,
131,Houston,29.76328,-95.36327,US,2296224,11,0.215279101,0.35155991,486.6243777,,,
132,Queens,40.68149,-73.83652,US,2272771,11,0.205529283,0.37112586,125.7706105,,,
133,Nagpur,21.14631,79.08491,IN,2228018,13,0.167890239,0.267664875,5102.646817,,,
134,Maracaibo,10.66663,-71.61245,VE,2225000,8,0.22750151,0.294457438,14858.72154,,,
135,Brasilia,-15.77972,-47.92972,BR,2207718,13,0.148527865,0.263724493,7924.714421,,,
136,Santo Domingo,18.50012,-69.98857,DO,2201941,8,0.221481772,0.282667509,1716.914598,,,
137,Nagoya,35.18147,136.90641,JP,2191279,19,0.114208523,0.184181885,164.3903257,,,
138,Brisbane,-27.46794,153.02809,AU,2189878,2,0.690909091,0.776315789,0.05625,,,
139,Havana,23.13302,-82.38304,CU,2163824,9,0.241607868,0.33578452,2076.18268,,,
140,Paris,48.85341,2.3488,FR,2138551,16,0.165225631,0.362402574,492.8676027,,,
141,Al Mawsil al Jadidah,36.33271,43.10555,IQ,2065597,12,0.197802198,0.274164171,15769.62282,,,
142,Johannesburg,-26.20227,28.04363,ZA,2026469,19,0.088686862,0.112511854,2510.792342,,,
143,Kowloon,22.31667,114.18333,HK,2019533,17,0.126301494,0.196909261,2991.334554,,,
144,Al Basrah al Qadimah,30.50316,47.81507,IQ,2015483,12,0.192307692,0.243106849,2186.091171,,,
145,Almaty,43.25667,76.92861,KZ,2000900,13,0.176604633,0.210832509,11927.64781,,,
146,Medellin,6.25184,-75.56359,CO,1999979,9,0.213247783,0.273085054,368.0918496,,,
147,Tashkent,41.26465,69.21627,UZ,1978028,12,0.18753781,0.233242266,2997.539567,,,
148,Algiers,36.73225,3.08746,DZ,1977663,16,0.156794425,0.273522511,1889.789099,,,
149,Khartoum,15.55177,32.53241,SD,1974647,14,0.156390135,0.192161061,186947.4571,,,
150,Accra,5.55602,-0.1969,GH,1963264,19,0.091860925,0.124317167,929.2214811,,,
151,Guayaquil,-2.20584,-79.90795,EC,1952029,10,0.196044414,0.243014468,2780.434079,,,
152,Ordos,39.6086,109.78157,CN,1940653,17,0.141158614,0.203046382,16758.38497,,,
153,Sanaa,15.35472,44.20667,YE,1937451,14,0.146672274,0.17542783,3740.69857,,,
154,Beirut,33.88894,35.49442,LB,1916100,13,0.188653729,0.270682213,5183.198061,,,
155,Perth,-31.95224,115.8614,AU,1896548,0,0,0,0,,,
156,Sapporo,43.06667,141.35,JP,1883027,19,0.112763722,0.164484006,313.1643484,,,
157,Jilin,43.85083,126.56028,CN,1881977,18,0.126141604,0.189548172,316.898489,,,
158,Bucharest,44.43225,26.10626,RO,1877155,14,0.19375,0.334184706,3942.06966,,,
159,Camayenne,9.535,-13.68778,GN,1871242,20,0.084132441,0.103743871,141.1019227,,,
160,Indore,22.71792,75.8333,IN,1837041,13,0.170934934,0.265523983,2453.009504,,,
161,Iztapalapa,19.35529,-99.06224,MX,1820888,10,0.214910612,0.335311842,154.2698364,,,
162,Ecatepec,19.60492,-99.06064,MX,1806226,10,0.216267943,0.338291193,181.5101945,,,
163,Conakry,9.53795,-13.67729,GN,1767200,20,0.084132441,0.103743871,141.1019227,,,
164,Maracay,10.23535,-67.59113,VE,1754256,8,0.212206573,0.271472819,1225.110634,,,
165,Medan,3.58333,98.66667,ID,1750971,17,0.117340287,0.157610119,609.3499367,,,
166,Rawalpindi,33.6007,73.0679,PK,1743101,12,0.18339578,0.252223179,5037.016618,,,
167,Minsk,53.9,27.56667,BY,1742124,14,0.191871261,0.332319075,16803.34255,,,
168,Budapest,47.49801,19.03991,HU,1741041,15,0.187676577,0.376752607,6794.560695,,,
169,Mosul,36.335,43.11889,IQ,1739800,12,0.197802198,0.274164171,15769.62282,,,
170,Hamburg,53.57532,10.01534,DE,1739117,15,0.176806084,0.374683932,1679.855356,,,
171,Curitiba,-25.42778,-49.27306,BR,1718421,15,0.128438281,0.253116962,244.0661575,,,
172,Warsaw,52.22977,21.01178,PL,1702139,15,0.184584849,0.35756357,5970.563688,,,
173,Bandung,-6.92222,107.60694,ID,1699719,19,0.098621421,0.132791866,176.1077701,,,
174,Soweto,-26.26781,27.85849,ZA,1695047,19,0.088684043,0.112452116,3184.188012,,,
175,Vienna,48.20849,16.37208,AT,1691468,15,0.181924883,0.383714976,4792.097156,,,
176,Rabat,34.01325,-6.83255,MA,1655753,17,0.137961727,0.219872333,15.18841609,,,
177,Guadalajara,20.66682,-103.39182,MX,1640589,10,0.212725904,0.332806925,335.4180658,,,
178,Barcelona,41.38879,2.15899,ES,1621537,16,0.160298765,0.311089929,1724.886403,,,
179,Pretoria,-25.74486,28.18783,ZA,1619438,19,0.088681224,0.112272905,1696.25432,,,
180,Aleppo,36.20124,37.16117,SY,1602264,13,0.194168001,0.27941108,4404.737964,,,
181,Manila,14.6042,120.9822,PH,1600000,19,0.110486298,0.170616186,1201.595645,,,
182,Montreal,45.50884,-73.58781,CA,1600000,12,0.186437882,0.342224329,12.34442117,,,
183,Patna,25.59408,85.13563,IN,1599920,14,0.165215847,0.252973388,3305.346678,,,
184,Bhopal,23.25469,77.40289,IN,1599914,13,0.173875109,0.272592596,8994.336813,,,
185,Manaus,-3.10194,-60.025,BR,1598210,11,0.183919271,0.218848536,40992.10213,,,
186,Xinyang,32.12278,114.06556,CN,1590668,17,0.13593179,0.216879829,8397.438867,,,
187,Puebla,19.03793,-98.20346,MX,1590256,10,0.215813598,0.34013485,448.2771968,,,
188,Kaduna,10.52641,7.43879,NG,1582102,18,0.100758397,0.139762699,95.09189165,,,
189,Phnom Penh,11.56245,104.91601,KH,1573544,17,0.12601626,0.178265102,498.9612589,,,
190,Damascus,33.5102,36.29128,SY,1569394,13,0.190991238,0.268357779,1964.496965,,,
191,Philadelphia,39.95233,-75.16379,US,1567442,11,0.207035544,0.378957719,116.3103263,,,
192,Phoenix,33.44838,-112.07404,US,1563025,12,0.184009119,0.292944936,2681.623937,,,
193,Isfahan,32.65246,51.67462,IR,1547164,11,0.194397993,0.249859592,18304.13456,,,
194,Ludhiana,30.91204,75.85379,IN,1545368,13,0.181830031,0.261365424,18729.89198,,,
195,Harare,-17.82772,31.05337,ZW,1542813,18,0.097073867,0.124414357,46635.04922,,,
196,Kobe,34.6913,135.183,JP,1528478,19,0.115051546,0.18609019,191.3038007,,,
197,Bekasi,-6.2349,106.9896,ID,1520119,19,0.102671671,0.13852381,594.6192047,,,
198,Kaohsiung,22.61626,120.31333,TW,1519711,18,0.122885835,0.200446596,48846.09305,,,
199,Stockholm,59.33258,18.0649,SE,1515017,15,0.17492163,0.299694523,598.8652793,,,
200,Ciudad Juarez,31.73333,-106.48333,MX,1512354,11,0.20192995,0.324612497,5517.275864,,,
201,Manhattan,40.78343,-73.96625,US,1487536,11,0.205978855,0.372866273,135.5568159,,,
202,Asuncion,-25.30066,-57.63591,PY,1482200,14,0.137737689,0.237848808,1701.796611,,,
203,Recife,-8.05389,-34.88111,BR,1478098,13,0.141586267,0.212922063,19.21644485,,,
204,Daejeon,36.32139,127.41972,KR,1475221,18,0.12496081,0.206261172,1837.238097,,,
205,San Antonio,29.42412,-98.49363,US,1469845,11,0.216890595,0.35113448,1018.045898,,,
206,Kumasi,6.68848,-1.62443,GH,1468609,19,0.091851852,0.123032818,820.4850907,,,
207,Kota Bharu,6.13328,102.2386,MY,1459994,17,0.119251154,0.167484814,3450.727639,,,
208,Kyoto,35.02107,135.75385,JP,1459640,19,0.115046802,0.186030453,194.3418358,,,
209,Kuala Lumpur,3.1412,101.68653,MY,1453975,17,0.118320611,0.16297537,3125.679201,,,
210,Karaj,35.83266,50.99155,IR,1448075,12,0.192772749,0.251061615,1931.403186,,,
211,Kathmandu,27.70169,85.3206,NP,1442271,14,0.169759659,0.256333305,79357.15228,,,
212,Palembang,-2.91673,104.7458,ID,1441500,18,0.107506165,0.148007189,10780.32132,,,
213,Multan,30.19679,71.47824,PK,1437230,12,0.186410102,0.262169273,36270.70073,,,
214,Hanoi,21.0245,105.84117,VN,1431270,16,0.134574571,0.200467477,8568.823289,,,
215,Kharkiv,49.98081,36.25272,UA,1430885,14,0.196078431,0.307779595,5038.069721,,,
216,Agra,27.18333,78.01667,IN,1430055,13,0.173152113,0.26619375,5129.65105,,,
217,Cordoba,-31.4135,-64.18105,AR,1428214,14,0.134925373,0.210385681,495.8350114,,,
218,Tabriz,38.08,46.2919,IR,1424641,12,0.194791594,0.266539615,3289.410996,,,
219,Novosibirsk,55.0415,82.9346,RU,1419007,14,0.16930639,0.195737395,7586.35151,,,
220,Gwangju,35.15472,126.91556,KR,1416938,18,0.125224417,0.208462059,2850.417707,,,
221,Bursa,40.19559,29.06013,TR,1412701,14,0.193293612,0.308210357,6564.583366,,,
222,Vadodara,22.29941,73.20812,IN,1409476,13,0.169326941,0.257293483,1352.122988,,,
223,Belem,-1.45583,-48.50444,BR,1407737,12,0.156488021,0.202847406,291.0104817,,,
224,Fushun,41.85583,123.92333,CN,1400646,18,0.127607025,0.197589078,495.2597472,,,
225,Quito,-0.22985,-78.52495,EC,1399814,10,0.193559438,0.242940722,504.8421544,,,
226,San Diego,32.71533,-117.15726,US,1394928,12,0.174436554,0.2734852,544.4817717,,,
227,Fukuoka,33.6,130.41667,JP,1392289,19,0.118506562,0.198107349,2503.859395,,,
228,Antananarivo,-18.91368,47.53613,MG,1391433,18,0.094904415,0.110691361,0.547357757,,,
229,Luoyang,34.68361,112.45361,CN,1390581,17,0.135911925,0.213960217,5603.02063,,,
230,Hyderabad,25.39242,68.37366,PK,1386330,12,0.181948611,0.253966224,11862.87648,,,
231,The Bronx,40.84985,-73.86641,US,1385108,11,0.205529283,0.37112586,125.7706105,,,
232,Valencia,10.16202,-68.00765,VE,1385083,8,0.212087087,0.270145386,1097.134718,,,
233,Gujranwala,32.15567,74.18705,PK,1384471,13,0.181948611,0.256298291,6600.086179,,,
234,Barranquilla,10.96854,-74.78132,CO,1380425,8,0.227044404,0.293447113,7439.672105,,,
235,Guankou,28.15861,113.62709,CN,1380000,17,0.130912162,0.216776728,7935.347832,,,
236,Tijuana,32.5027,-117.00371,MX,1376457,12,0.174544331,0.274960126,939.6400605,,,
237,Lubumbashi,-11.66089,27.47938,CD,1373770,17,0.106835152,0.133784516,15374.94997,,,
238,Porto Alegre,-30.03306,-51.23,BR,1372741,15,0.125695217,0.235030039,254.8989926,,,
239,Tangerang,-6.17806,106.63,ID,1372124,19,0.102671671,0.13852381,594.6192047,,,
240,Santa Cruz de la Sierra,-17.78629,-63.18117,BO,1364389,13,0.153365907,0.219417382,9118.735398,,,
241,Handan,36.60056,114.46778,CN,1358318,17,0.133697527,0.210179889,843.207597,,,
242,Kampala,0.31628,32.58219,UG,1353189,16,0.118145247,0.148163827,500.7183933,,,
243,Yekaterinburg,56.8519,60.6122,RU,1349772,14,0.183746048,0.225609607,8039.540243,,,
244,Khulna,22.80979,89.56439,BD,1342339,14,0.160788382,0.236750496,5068.132493,,,
245,Douala,4.04827,9.70428,CM,1338082,18,0.100955276,0.138812878,554.5489435,,,
246,Gorakhpur,29.44768,75.67206,IN,1324570,13,0.180957323,0.265555985,11802.14762,,,
247,Mecca,21.42664,39.82563,SA,1323624,13,0.167226085,0.203362795,12285.19139,,,
248,Makassar,-5.14861,119.43194,ID,1321717,20,0.091691863,0.123462353,5879.22365,,,
249,Kawasaki,35.52056,139.71722,JP,1306785,19,0.111917847,0.173604442,23.7534863,,,
250,South Tangerang,-6.28862,106.71789,ID,1303569,19,0.102671671,0.13852381,594.6192047,,,
251,Baotou,40.65222,109.82222,CN,1301768,17,0.140823743,0.200931686,6995.142255,,,
252,Dallas,32.78306,-96.80667,US,1300092,11,0.219119643,0.36875755,2041.695797,,,
253,Medina,24.46861,39.61417,SA,1300000,13,0.18082831,0.226136126,20554.60561,,,
254,Yaounde,3.86667,11.51667,CM,1299369,17,0.111319475,0.150609861,8076.718301,,,
255,Bamako,12.65,-8,ML,1297281,19,0.091259976,0.114800469,19442.66694,,,
256,Nashik,19.99727,73.79096,IN,1289497,13,0.168447745,0.250215483,2670.286167,,,
257,Semarang,-6.99306,110.42083,ID,1288084,19,0.09863188,0.133210026,200.4705514,,,
258,Brazzaville,-4.26613,15.28318,CG,1284609,18,0.101185943,0.128825253,5024.983934,,,
259,Pimpri,18.62292,73.80696,IN,1284606,13,0.167125914,0.247230332,3901.759867,,,
260,Nizhniy Novgorod,56.32867,44.00205,RU,1284164,13,0.191858066,0.267913649,67655.10212,,,
261,Amman,31.95522,35.94503,JO,1275857,13,0.18957668,0.263226874,6898.011659,,,
262,Budta,7.20417,124.43972,PH,1273715,19,0.103214827,0.155010414,269.8804537,,,
263,Belgrade,44.80401,20.46513,RS,1273651,14,0.191502505,0.358079142,11058.20514,,,
264,Montevideo,-34.90328,-56.18816,UY,1270737,15,0.123510766,0.206014664,60.67295171,,,
265,Lusaka,-15.40669,28.28713,ZM,1267440,18,0.096959166,0.120202887,36.21665753,,,
266,Kalyan,19.2437,73.13554,IN,1262255,13,0.166985875,0.245515876,1405.807722,,,
267,Thane,19.19704,72.96355,IN,1261517,13,0.165854238,0.242857999,1921.947128,,,
268,Munich,48.13743,11.57549,DE,1260391,15,0.177176605,0.381811147,2045.994424,,,
269,Ra's Bayrut,33.9,35.48333,LB,1251739,13,0.188653729,0.270682213,5183.198061,,,
270,Shiraz,29.61031,52.53113,IR,1249942,11,0.192334207,0.240321792,24326.8384,,,
271,Adana,37.00167,35.32889,TR,1248988,13,0.192746114,0.282338859,10609.89826,,,
272,Suwon,37.29111,127.00889,KR,1242724,18,0.127246192,0.208796406,2731.628876,,,
273,Milan,45.46427,9.18951,IT,1236837,15,0.176147484,0.376401521,2104.468383,,,
274,Port-au-Prince,18.53917,-72.335,HT,1234742,8,0.230706411,0.294115044,2408.946648,,,
275,Ciudad Nezahualcoyotl,19.40061,-99.01483,MX,1232220,10,0.216267943,0.338291193,181.5101945,,,
276,Adelaide,-34.92866,138.59863,AU,1225235,3,0.62295082,0.706140351,0,,,
277,Meerut,28.98002,77.70636,IN,1223184,13,0.172169084,0.257597574,1432.094091,,,
278,Nowrangapur,19.23114,82.54826,IN,1220946,14,0.161495717,0.252560348,2118.040966,,,
279,Faridabad,28.41124,77.31316,IN,1220229,13,0.172584436,0.260639902,1843.59981,,,
280,Peshawar,34.008,71.57849,PK,1218773,12,0.184121956,0.250076482,6178.781155,,,
281,Davao,7.07306,125.61278,PH,1212504,20,0.100356102,0.149303368,282.8479786,,,
282,Mandalay,21.97473,96.08359,MM,1208099,15,0.147861572,0.218120546,50058.70647,,,
283,Yueyang,29.37455,113.09481,CN,1200000,17,0.135194069,0.218517468,6194.160764,,,
284,Santiago de los Caballeros,19.4517,-70.69703,DO,1200000,8,0.226771021,0.28666456,2317.267403,,,
285,Omdurman,15.64453,32.47773,SD,1200000,14,0.156381369,0.191981849,180953.8811,,,
286,Anshan,41.12361,122.99,CN,1199275,18,0.132800228,0.205815066,6868.26007,,,
287,Tongshan,34.18045,117.15707,CN,1199193,17,0.133697527,0.21811344,7095.363575,,,
288,Ghaziabad,28.66535,77.43915,IN,1199191,13,0.172563088,0.260281479,1794.479554,,,
289,Depok,-6.4,106.81861,ID,1198129,19,0.102671671,0.13852381,594.6192047,,,
290,Saitama,35.90807,139.65657,JP,1193350,19,0.111931317,0.174022602,28.19107323,,,
291,Gustavo Adolfo Madero,19.49392,-99.11075,MX,1193161,10,0.214910612,0.335311842,154.2698364,,,
292,Dombivli,19.21667,73.08333,IN,1193000,13,0.166985875,0.245515876,1405.807722,,,
293,Maputo,-25.96553,32.58322,MZ,1191613,19,0.088672769,0.111735271,1037.938708,,,
294,Fuzhou,26.06139,119.30611,CN,1179720,17,0.126398768,0.200186271,308.2683644,,,
295,Rajkot,22.29161,70.79322,IN,1177362,12,0.174724449,0.251475611,18826.65966,,,
296,Rosario,-32.94682,-60.63932,AR,1173533,14,0.135264544,0.217397902,348.4691996,,,
297,Guiyang,26.58333,106.71667,CN,1171633,16,0.134971699,0.202679872,2923.544749,,,
298,Goiania,-16.67861,-49.25389,BR,1171195,14,0.139351338,0.255070073,527.9022309,,,
299,Guarulhos,-23.46278,-46.53333,BR,1169577,14,0.139128294,0.261656672,202.1042926,,,
300,Prague,50.08804,14.42076,CZ,1165581,15,0.182198132,0.378761711,2280.616888,,,
301,Varanasi,25.31668,83.01041,IN,1164404,14,0.167648119,0.260747454,4741.824373,,,
302,Copenhagen,55.67594,12.56553,DK,1153615,15,0.177424483,0.354090971,5299.449537,,,
303,Sofia,42.69751,23.32415,BG,1152556,14,0.190067443,0.331913272,8646.246703,,,
304,Tripoli,32.87519,13.18746,LY,1150989,15,0.163215163,0.252023698,275.1334079,,,
305,Port Harcourt,4.77742,7.0134,NG,1148665,18,0.100722022,0.137940716,382.8423506,,,
306,Hiroshima,34.4,132.45,JP,1143841,19,0.115070527,0.186149927,209.2446013,,,
307,Lijiang,26.86879,100.22072,CN,1137600,15,0.148065595,0.21000184,89867.17916,,,
308,Dubai,25.0657,55.17128,AE,1137347,11,0.183323477,0.21987291,17887.54475,,,
309,Samara,53.20007,50.15,RU,1134730,13,0.191686706,0.260422421,12308.68876,,,
310,Omsk,54.99244,73.36859,RU,1129281,14,0.178343135,0.21092642,202436.0798,,,
311,Benin City,6.33815,5.62575,NG,1125058,18,0.100736568,0.138657562,674.9930339,,,
312,Monterrey,25.67507,-100.31847,MX,1122874,10,0.222178529,0.367998666,2336.560038,,,
313,Malingao,7.16083,124.475,PH,1121974,19,0.103211009,0.154831202,255.47624,,,
314,Baku,40.37767,49.89201,AZ,1116513,12,0.197746119,0.264460659,32773.51484,,,
315,Leon de los Aldama,21.12908,-101.67374,MX,1114626,10,0.214339909,0.338573887,722.7723374,,,
316,Maiduguri,11.84692,13.15712,NG,1112449,17,0.110947628,0.146841727,3794.013065,,,
317,Kazan,55.78874,49.12214,RU,1104738,13,0.191541947,0.257949303,9454.758078,,,
318,Yerevan,40.18111,44.51361,AM,1093485,12,0.198902117,0.277375935,16314.53916,,,
319,Amritsar,31.62234,74.87534,IN,1092450,13,0.17866291,0.254965156,7168.011117,,,
320,Ouagadougou,12.36566,-1.53388,BF,1086505,18,0.100197522,0.131622658,15869.19918,,,
321,Yono,35.88333,139.63333,JP,1077730,19,0.111931317,0.174022602,28.19107323,,,
322,Rostov-na-Donu,47.23135,39.72328,RU,1074482,13,0.199899692,0.297825433,14676.56024,,,
323,Allahabad,25.44478,81.84322,IN,1073438,14,0.170851194,0.265114784,5188.735537,,,
324,Goyang-si,37.65639,126.835,KR,1073069,18,0.127246192,0.208796406,2657.690303,,,
325,Gaziantep,37.05944,37.3825,TR,1065975,13,0.195913208,0.282874128,8844.542542,,,
326,Visakhapatnam,17.68009,83.20161,IN,1063178,14,0.156311278,0.240924416,2574.511414,,,
327,Sendai,38.26667,140.86667,JP,1063103,20,0.110806625,0.167288051,4.578307272,,,
328,Chelyabinsk,55.15402,61.42915,RU,1062919,14,0.184621493,0.226760401,11633.42979,,,
329,Datong,40.09361,113.29139,CN,1052678,17,0.14004618,0.205975145,10368.59392,,,
330,Tbilisi,41.69411,44.83368,GE,1049498,12,0.201531349,0.280724345,54675.05806,,,
331,Changshu City,31.64615,120.74221,CN,1047700,18,0.130826222,0.221726604,10186.27544,,,
332,Taichung,24.1469,120.6839,TW,1040725,18,0.122691293,0.196569654,4197.925011,,,
333,Teni,10.01531,77.482,IN,1034724,14,0.14439499,0.202026864,11.56812146,,,
334,Xianyang,34.33778,108.70261,CN,1034081,17,0.135095874,0.208124069,2101.257614,,,
335,Ufa,54.74306,55.96779,RU,1033338,13,0.187034927,0.239580412,9693.170013,,,
336,Dnipro,48.4593,35.03865,UA,1032822,13,0.200330294,0.318293735,15047.69361,,,
337,Seongnam-si,37.43861,127.13778,KR,1031935,18,0.127240389,0.208617195,3322.942627,,,
338,Campinas,-22.90556,-47.06083,BR,1031554,14,0.139179702,0.26268912,226.072023,,,
339,Jabalpur,23.16697,79.95006,IN,1030168,13,0.168988492,0.267283979,3062.554165,,,
340,Haora,22.57688,88.31857,IN,1027672,14,0.16117851,0.240537831,7272.365651,,,
341,Huainan,32.62639,116.99694,CN,1027655,17,0.13362069,0.213549522,4313.816975,,,
342,San Jose,37.33939,-121.89496,US,1026908,13,0.158130423,0.244960462,218.465214,,,
343,Donetsk,48.023,37.80224,UA,1024700,13,0.200359066,0.304763477,11376.06403,,,
344,Dublin,53.33306,-6.24889,IE,1024027,16,0.152051883,0.28914435,10.30672379,,,
345,Calgary,51.05011,-114.08529,CA,1019942,14,0.147925121,0.217114009,1785.55562,,,
346,Brussels,50.85045,4.34878,BE,1019022,16,0.168001445,0.365897364,318.3002073,,,
347,Aurangabad,19.87757,75.34226,IN,1016441,13,0.167789271,0.25500171,2297.56831,,,
348,Volgograd,48.71939,44.50183,RU,1011417,13,0.199456677,0.287244703,10434.11174,,,
349,Nova Iguacu,-22.75917,-43.45111,BR,1002118,14,0.133933863,0.250795026,109.803196,,,
350,Jieyang,23.5418,116.36581,CN,1001985,17,0.126726017,0.202112368,4062.911954,,,
351,Odessa,46.47747,30.73262,UA,1001558,14,0.195050336,0.330429502,10138.55538,,,
352,Shivaji Nagar,18.53017,73.85263,IN,1000000,13,0.167135925,0.247409544,4393.015117,,,
353,Zhu Cheng City,35.99502,119.40259,CN,1000000,18,0.130209549,0.215783197,2039.188604,,,
354,Kitakyushu,33.85181,130.85034,JP,997536,19,0.117965414,0.196631523,2471.049817,,,
355,Solapur,17.67152,75.91044,IN,997281,13,0.160612515,0.242679395,1076.219657,,,
356,Baoding,38.85111,115.49028,CN,995652,17,0.137913989,0.21244411,2634.621563,,,
357,Guatemala City,14.64072,-90.51327,GT,994938,9,0.222572385,0.305514468,750.005098,,,
358,Benxi,41.28861,123.765,CN,987717,18,0.127999266,0.199952109,357.3086318,,,
359,Zapopan,20.72356,-103.38479,MX,987516,10,0.212725904,0.332806925,335.4180658,,,
360,Birmingham,52.48142,-1.89983,GB,984333,16,0.16115058,0.326485466,30.26584687,,,
361,Perm,58.01046,56.25017,RU,982419,13,0.183867141,0.235297624,20649.77698,,,
362,Srinagar,34.08565,74.80555,IN,975857,13,0.181676109,0.252415375,8537.255027,,,
363,Zaria,11.11128,7.7227,NG,975153,17,0.110872675,0.150862037,11825.63703,,,
364,Managua,12.13282,-86.2504,NI,973087,8,0.220832519,0.286579225,4668.134368,,,
365,Port Elizabeth,-33.91799,25.57007,ZA,967677,20,0.081557485,0.10104287,800.2296518,,,
366,Fes,34.03313,-5.00028,MA,964891,17,0.140004014,0.225661988,44.0064719,,,
367,Koeln,50.93333,6.95,DE,963395,16,0.170830272,0.37470841,705.401954,,,
368,Ulsan,35.53722,129.31667,KR,962865,19,0.122578094,0.206100226,11047.21959,,,
369,Chandigarh,30.73629,76.7884,IN,960787,13,0.178183676,0.258113731,6572.632289,,,
370,Coimbatore,11.00555,76.96612,IN,959823,14,0.14803417,0.20899007,41.624367,,,
371,Naples,40.85216,14.26811,IT,959470,15,0.178217822,0.324416242,2640.18181,,,
372,Maceio,-9.66583,-35.73528,BR,954991,13,0.142658755,0.220562181,72.03993554,,,
373,Cartagena,10.39972,-75.51444,CO,952024,8,0.231747334,0.301701433,12715.89109,,,
374,Changzhou,31.77359,119.95401,CN,949018,18,0.130771034,0.220711072,9523.212274,,,
375,Sultanah,24.49258,39.58572,SA,946697,13,0.18082831,0.226136126,20554.60561,,,
376,Monrovia,6.30054,-10.7969,LR,939524,20,0.084165435,0.103731923,42.63015919,,,
377,Kingston,17.99702,-76.79358,JM,937700,8,0.240938166,0.314142436,26074.53102,,,
378,Erbil,36.19257,44.01062,IQ,932800,12,0.198012775,0.270641515,8083.153473,,,
379,Austin,30.26715,-97.74306,US,931830,11,0.214584125,0.348728052,492.7948455,,,
380,Krasnoyarsk,56.01839,92.86717,RU,927200,15,0.160899654,0.187231213,30525.94955,,,
381,Nay Pyi Taw,19.745,96.12972,MM,925000,15,0.147924288,0.217647769,53431.63105,,,
382,Jodhpur,26.26841,73.00594,IN,921476,13,0.178217822,0.2670039,7684.163784,,,
383,Chiba,35.6,140.11667,JP,919729,20,0.109950739,0.171506791,17.69283322,,,
384,Sao Luis,-2.52972,-44.30278,BR,917237,12,0.156813766,0.208304633,1581.374645,,,
385,Madurai,9.91735,78.11962,IN,909908,14,0.14439499,0.202026864,11.56812146,,,
386,Sale,34.0531,-6.79846,MA,903485,17,0.137961727,0.219872333,15.18841609,,,
387,Huaibei,33.97444,116.79167,CN,903039,17,0.133646292,0.216679749,5148.066991,,,
388,Cochabamba,-17.3895,-66.1568,BO,900414,12,0.166666667,0.221175248,9355.522866,,,
389,Abobo,5.41613,-4.0159,CI,900000,19,0.091761223,0.119149903,1231.396637,,,
390,Abu Ghurayb,33.30563,44.18477,IQ,900000,12,0.19491407,0.264219641,6990.43776,,,
391,Bishkek,42.87,74.59,KG,900000,13,0.1816288,0.224521395,21447.20084,,,
392,Kaifeng,34.7986,114.30742,CN,900000,17,0.135246498,0.213828967,2065.309846,,,
393,Qom,34.6401,50.8764,IR,900000,12,0.191174455,0.247200034,1167.180264,,,
394,Guwahati,26.1844,91.7458,IN,899094,14,0.160261933,0.22987162,15882.84305,,,
395,Aba,5.10658,7.36667,NG,897560,18,0.100696575,0.1380124,156.9473468,,,
396,Pingdingshan,33.73847,113.30119,CN,889675,17,0.135226832,0.213578071,5323.042117,,,
397,Gwalior,26.22983,78.17337,IN,882458,13,0.173464312,0.271151934,6563.742074,,,
398,Qiqihar,47.34088,123.96045,CN,882364,18,0.1323655,0.185505106,16231.77926,,,
399,Klang,3.03333,101.45,MY,879867,17,0.118145247,0.161702968,1931.925251,,,
400,Mendoza,-32.89084,-68.82717,AR,876884,14,0.133617122,0.19961872,1145.720805,,,
401,Konya,37.87135,32.48464,TR,875530,13,0.195050336,0.294935899,12294.1058,,,
402,Mbuji-Mayi,-6.13603,23.58979,CD,874761,17,0.111337244,0.139832425,7135.982279,,,
403,Vijayawada,16.50745,80.6466,IN,874587,14,0.156127588,0.240181115,1560.337353,,,
404,Pikine,14.76457,-17.39071,SN,874062,20,0.08362056,0.099177004,64.92254243,,,
405,Turin,45.07049,7.68682,IT,870456,15,0.174473141,0.372425353,2373.953845,,,
406,Mysore,12.29791,76.63925,IN,868313,14,0.149605877,0.217060702,140.0328682,,,
407,Jacksonville,30.33218,-81.65565,US,868031,10,0.234537152,0.372251721,3674.380076,,,
408,Wenzhou,27.99942,120.66682,CN,865672,18,0.124154503,0.202891161,1039.060316,,,
409,San Francisco,37.77493,-122.41942,US,864816,13,0.154498223,0.241018885,165.4080153,,,
410,Liverpool,53.41058,-2.97794,GB,864122,16,0.159219312,0.315689614,43.39747853,,,
411,Saratov,51.54056,46.00861,RU,863725,13,0.19735446,0.278583979,19947.31418,,,
412,Tegucigalpa,14.0818,-87.20681,HN,850848,8,0.235465722,0.310626844,2489.720103,,,
413,Bucheon-si,37.49889,126.78306,KR,850731,18,0.127251995,0.208975618,2741.601094,,,
414,Columbus,39.96118,-82.99879,US,850106,11,0.218865001,0.422350049,1173.733949,,,
415,Voronezh,51.67204,39.1843,RU,848752,14,0.190326762,0.291646787,2172.891393,,,
416,Ranchi,23.34316,85.3094,IN,846454,14,0.164572642,0.252672568,1703.968273,,,
417,Naucalpan de Juarez,19.47851,-99.23963,MX,846185,10,0.214910612,0.335311842,154.2698364,,,
418,Ulan Bator,47.90771,106.88324,MN,844818,16,0.149959688,0.187615658,49210.85752,,,
419,Takeo,10.99081,104.78498,KH,843931,17,0.126073204,0.179788399,1823.649476,,,
420,Ahvaz,31.31901,48.6842,IR,841145,12,0.192852699,0.245000517,4096.662929,,,
421,Arequipa,-16.39889,-71.535,PE,841130,12,0.166592953,0.215569156,7439.551953,,,
422,Padang,-0.94924,100.35427,ID,840352,18,0.111846061,0.150705032,4222.8357,,,
423,Hubli,15.34776,75.13378,IN,840214,13,0.159702347,0.235751165,906.4938083,,,
424,Marrakesh,31.63416,-7.99994,MA,839296,17,0.132617169,0.201136491,3139.817987,,,
425,Denpasar,-8.65,115.21667,ID,834881,20,0.094923789,0.127533772,1989.339829,,,
426,Kampung Baru Subang,3.15,101.53333,MY,833571,17,0.118320611,0.16297537,3125.679201,,,
427,Fort Worth,32.72541,-97.32085,US,833319,11,0.218526397,0.365512712,1501.649347,,,
428,Indianapolis,39.76838,-86.15804,US,829718,11,0.217684454,0.403397247,832.598216,,,
429,Charlotte,35.22709,-80.84313,US,827097,10,0.234878404,0.418682399,2277.277039,,,
430,Duque de Caxias,-22.78556,-43.31167,BR,818329,14,0.133902121,0.24991007,96.5688503,,,
431,Jos,9.92849,8.89212,NG,816824,17,0.11082423,0.150216876,4781.131594,,,
432,Valencia,39.46975,-0.37739,ES,814208,16,0.15308642,0.279165568,634.0767224,,,
433,Ilorin,8.49664,4.54214,NG,814192,18,0.100747481,0.138866642,763.068326,,,
434,Callao,-12.05659,-77.11814,PE,813264,11,0.177032743,0.216781532,3092.975787,,,
435,La Paz,-16.5,-68.15,BO,812799,12,0.164483261,0.215437785,10703.13974,,,
436,Ottawa,45.41117,-75.69812,CA,812129,12,0.187241094,0.347622559,31.92069778,,,
437,Barquisimeto,10.0647,-69.35703,VE,809490,8,0.218695568,0.279662874,2858.980978,,,
438,Chihuahua,28.63528,-106.08889,MX,809232,11,0.202327663,0.32514347,7363.06729,,,
439,Nanning,22.81667,108.31667,CN,803788,16,0.134841235,0.201887501,10964.52823,,,
440,Freetown,8.484,-13.22994,SL,802639,20,0.084129904,0.103564659,111.2207384,,,
441,Johor Bahru,1.4655,103.7578,MY,802489,18,0.113267295,0.15759102,8635.699175,,,
442,Jerusalem,31.76904,35.21633,IL,801000,13,0.189088445,0.26244517,5897.130383,,,
443,Bandar Lampung,-5.42917,105.26111,ID,800348,18,0.106859704,0.14353117,3724.310132,,,
444,Bogor,-6.59444,106.78917,ID,800000,19,0.102671671,0.13852381,594.6192047,,,
445,Mombasa,-4.05466,39.66359,KE,799668,16,0.116332402,0.144761227,9421.706535,,,
446,Cebu City,10.31672,123.89071,PH,798634,19,0.106063486,0.162022672,983.3499504,,,
447,Muscat,23.58413,58.40778,OM,797000,11,0.181157068,0.222460369,25776.67355,,,
448,Zaporizhia,47.82289,35.19031,UA,796217,13,0.200373456,0.318711895,18003.85607,,,
449,Marseille,43.29695,5.38107,FR,794811,16,0.165470613,0.347641733,3229.842752,,,
450,Zarqa,32.07275,36.08796,JO,792665,13,0.189589562,0.263406085,7130.033133,,,
451,Cankaya,39.9179,32.86268,TR,792189,13,0.197802198,0.304488931,19666.65662,,,
452,Pasragad Branch,34.77772,48.47168,IR,787878,12,0.194276165,0.255810719,6413.682471,,,
453,Boumerdas,36.76639,3.47717,DZ,786499,16,0.157103441,0.275929065,1542.268507,,,
454,Jalandhar,31.32556,75.57917,IN,785178,13,0.180185998,0.258279288,13825.62108,,,
455,Thiruvananthapuram,8.4855,76.94924,IN,784153,14,0.14180432,0.194216024,2.904791634,,,
456,Sakai,34.58333,135.46667,JP,782339,19,0.115042058,0.185851242,177.3659777,,,
457,Anyang,36.096,114.38278,CN,781129,17,0.1335887,0.209403306,1003.570095,,,
458,San Miguel de Tucuman,-26.82414,-65.2226,AR,781023,13,0.14929317,0.21935963,6870.97632,,,
459,Cotonou,6.36536,2.41833,BJ,780000,18,0.100500702,0.137444898,2602.368078,,,
460,Salem,11.65117,78.15867,IN,778396,14,0.148341131,0.212156139,59.3742402,,,
461,Tiruchirappalli,10.8155,78.69651,IN,775484,14,0.147424042,0.206096089,17.74412849,,,
462,Homs,34.72682,36.72339,SY,775404,13,0.193320399,0.275546086,4825.919858,,,
463,Hohhot,40.81056,111.65222,CN,774477,17,0.140695915,0.203141961,10702.96404,,,
464,Niamey,13.51366,2.1098,NE,774235,18,0.100280354,0.133692124,263.0428441,,,
465,Tainan,22.99083,120.21333,TW,771235,18,0.122896661,0.200297253,39456.6684,,,
466,Shangyu,30.01556,120.87111,CN,770000,18,0.128630705,0.214561339,4378.57774,,,
467,Lodz,51.75,19.46667,PL,768755,15,0.185123748,0.366832359,6609.402725,,,
468,Dammam,26.43442,50.10326,SA,768602,11,0.186298077,0.230014158,5384.046769,,,
469,Xining,36.62554,101.75739,CN,767531,17,0.140158746,0.188659476,1282.644809,,,
470,Kahriz,34.3838,47.0553,IR,766706,12,0.197984672,0.259907498,6339.368928,,,
471,Kota,25.18254,75.83907,IN,763088,13,0.173227369,0.269600475,3670.823505,,,
472,Natal,-5.795,-35.20944,BR,763043,13,0.140007434,0.203710095,0.258248745,,,
473,Bhubaneshwar,20.27241,85.83385,IN,762243,14,0.159346622,0.240721736,919.0829197,,,
474,Qinhuangdao,39.93167,119.58833,CN,759718,18,0.135305529,0.215498886,9403.821811,,,
475,Hengyang,26.88946,112.61888,CN,759602,17,0.130985915,0.215659644,11458.66963,,,
476,Antalya,36.90812,30.69556,TR,758188,13,0.193387399,0.291371156,5112.08,,,
477,Krakow,50.06143,19.93658,PL,755050,15,0.187235756,0.372809955,9399.348188,,,
478,Aligarh,27.88145,78.07464,IN,753207,13,0.172916021,0.262728995,3684.124525,,,
479,Da Nang,16.06778,108.22083,VN,752493,17,0.128589206,0.191777931,6455.719483,,,
480,Pietermaritzburg,-29.61679,30.39278,ZA,750845,20,0.081557485,0.101162344,7.206884862,,,
481,Lome,6.13748,1.21227,TG,749700,18,0.100475367,0.136190417,1331.023308,,,
482,Trujillo,-8.11599,-79.02998,PE,747450,10,0.185641531,0.22615571,1267.443471,,,
483,Malang,-7.9797,112.6304,ID,746716,19,0.098638855,0.133085005,544.6822011,,,
484,Ciudad Guayana,8.35122,-62.64102,VE,746535,9,0.20327397,0.242707894,4114.443528,,,
485,Bareilly,28.36678,79.43167,IN,745435,13,0.172573761,0.258457789,3676.047003,,,
486,Kigali,-1.94995,30.05885,RW,745261,16,0.11813024,0.14768593,779.9688138,,,
487,Teresina,-5.08917,-42.80194,BR,744512,12,0.158285474,0.23087276,15671.64169,,,
488,Nangandao,35.19033,113.80151,CN,743601,17,0.135938414,0.214390325,2434.347468,,,
489,Sao Bernardo do Campo,-23.69389,-46.565,BR,743372,14,0.136046232,0.258569164,129.578527,,,
490,Hegang,47.35118,130.30012,CN,743307,18,0.125207557,0.177014037,1158.571159,,,
491,Riga,56.946,24.10589,LV,742572,14,0.184621493,0.320473048,24325.70803,,,
492,Amsterdam,52.37403,4.88969,NL,741636,16,0.167940769,0.364613015,323.3719937,,,
493,Oyo,7.85257,3.93125,NG,736072,18,0.100762035,0.139344539,2352.745594,,,
494,Quetta,30.18414,67.00141,PK,733675,12,0.187689203,0.252991655,121523.5898,,,
495,Nottingham,52.9536,-1.15047,GB,729977,16,0.161486369,0.330878707,43.15713421,,,
496,Campo Grande,-20.44278,-54.64639,BR,729151,14,0.141657265,0.251964903,5058.325133,,,
497,Ashgabat,37.95,58.38333,TM,727700,11,0.199100835,0.250065788,95302.87913,,,
498,Alvaro Obregon,19.35867,-99.20329,MX,727034,10,0.214910612,0.335311842,154.2698364,,,
499,Muzaffarabad,34.37002,73.47082,PK,725000,13,0.179675425,0.248319255,5096.024164,,,
500,Guadalupe,25.67678,-100.25646,MX,724921,10,0.222178529,0.367998666,2336.560038,,,
501,Bagcilar,41.03903,28.85671,TR,724270,14,0.191541947,0.311198508,4824.203678,,,
502,As Sulaymaniyah,35.56496,45.4329,IQ,723170,12,0.196825397,0.265838648,6413.036029,,,
503,Cucuta,7.89391,-72.50782,CO,721398,9,0.212765957,0.271166596,761.6892528,,,
504,Moradabad,28.83893,78.77684,IN,721139,13,0.172584436,0.258368183,3685.474614,,,
505,N'Djamena,12.10672,15.0444,TD,721081,17,0.110855054,0.14361592,1401.449889,,,
506,Langfang,39.50972,116.69472,CN,720119,18,0.135030491,0.21143676,2728.499178,,,
507,Zhumadian,32.97944,114.02944,CN,720000,17,0.135759817,0.215906114,4959.475077,,,
508,Yantai,37.47649,121.44081,CN,719332,18,0.130130597,0.214469833,3731.176508,,,
509,Lviv,49.83826,24.02324,UA,717803,14,0.190197014,0.344315119,10246.93074,,,
510,Merida,20.97537,-89.61696,MX,717175,9,0.239915074,0.349969448,7972.233695,,,
511,Tlalnepantla,19.54005,-99.19538,MX,715767,10,0.214910612,0.335311842,154.2698364,,,
512,Edmonton,53.55014,-113.46871,CA,712391,14,0.147693112,0.212689231,1929.058386,,,
513,Jeonju,35.82194,127.14889,KR,711424,18,0.125173853,0.207685476,2269.213755,,,
514,Zhuzhou,27.83333,113.15,CN,709358,17,0.130869178,0.215940408,7427.218858,,,
515,Subang Jaya,3.04384,101.58062,MY,708296,17,0.118320611,0.16297537,3125.679201,,,
516,Bhiwandi,19.30023,73.05881,IN,707035,13,0.16813306,0.246577491,1969.133471,,,
517,Pekanbaru,0.51667,101.44167,ID,703956,18,0.112314319,0.153751627,3620.383862,,,
518,Sevilla,37.38283,-5.97317,ES,703206,17,0.141934171,0.247482989,197.898548,,,
519,Tol'yatti,53.5303,49.3461,RU,702879,13,0.192999447,0.264741417,19309.71232,,,
520,Jaboatao,-8.18028,-35.00139,BR,702621,13,0.141586267,0.212922063,19.21644485,,,
521,Shizuoka,34.98333,138.38333,JP,701561,19,0.112102218,0.176501694,41.18944801,,,
522,Santo Domingo Oeste,18.5,-70,DO,701269,8,0.221481772,0.282667509,1716.914598,,,
523,Rajshahi,24.374,88.60114,BD,700133,14,0.161048257,0.240448226,7147.030168,,,
524,Santo Domingo Este,18.48847,-69.85707,DO,700000,8,0.219077162,0.279341551,1220.239336,,,
525,City of Balikpapan,-1.24204,116.89419,ID,700000,19,0.100125606,0.138549244,1574.390348,,,
526,Battagram,34.67719,73.02329,PK,700000,12,0.184414039,0.250497629,9224.124552,,,
527,Changzhi,35.20889,111.73861,CN,699514,17,0.135878829,0.213183634,5183.684691,,,
528,Bulawayo,-20.15,28.58333,ZW,699385,18,0.096935585,0.122819375,27225.51602,,,
529,Zagreb,45.81444,15.97798,HR,698966,15,0.181593335,0.373674428,4149.580602,,,
530,Agadir,30.42018,-9.59815,MA,698310,18,0.126467522,0.189882912,297.3698195,,,
531,Sarajevo,43.84864,18.35644,BA,696731,15,0.184000528,0.356330585,13233.73128,,,
532,La Plata,-34.92145,-57.95453,AR,694167,14,0.133223296,0.209195875,49.12530426,,,
533,Tunis,36.81897,10.16579,TN,693210,15,0.165118068,0.289332991,3369.130985,,,
534,Zhangjiakou,40.81,114.87944,CN,692602,17,0.139451192,0.206332714,26550.18244,,,
535,Zigong,29.34162,104.77689,CN,689961,16,0.14264533,0.211245733,36727.56254,,,
536,Fuxin,42.01556,121.65889,CN,689050,18,0.132598261,0.204745771,6015.504775,,,
537,Enugu,6.44132,7.49883,NG,688862,18,0.100740206,0.139075722,162.0507656,,,
538,Tangier,35.76727,-5.79975,MA,688356,17,0.140958925,0.239508078,141.0397,,,
539,Huangshi,30.24706,115.04814,CN,688090,17,0.135469774,0.220883059,12007.13015,,,
540,Liaoyang,41.27194,123.17306,CN,687890,18,0.132604563,0.204924983,6831.151293,,,
541,Sheffield,53.38297,-1.4659,GB,685368,16,0.16115058,0.327202312,36.07863849,,,
542,Seattle,47.60621,-122.33207,US,684451,14,0.142407057,0.210055083,61.03846152,,,
543,Denver,39.73915,-104.9847,US,682545,12,0.192537059,0.30700309,2859.628922,,,
544,El Paso,31.75872,-106.48693,US,681124,11,0.201031845,0.323131249,4608.091854,,,
545,Kumamoto,32.80589,130.69181,JP,680423,19,0.118085241,0.19674161,1995.422645,,,
546,Raipur,21.23333,81.63333,IN,679995,14,0.162454874,0.261083133,1778.611066,,,
547,General Santos,6.11278,125.17167,PH,679588,20,0.100273145,0.145551875,78.3188338,,,
548,Dushanbe,38.53575,68.77905,TJ,679400,12,0.189178194,0.242246789,15582.15896,,,
549,Osasco,-23.5325,-46.79167,BR,677856,14,0.139179702,0.262394135,220.3275576,,,
550,San Luis Potosi,22.14982,-100.97916,MX,677704,10,0.216433633,0.344798076,854.6347337,,,
551,Detroit,42.33143,-83.04575,US,677116,11,0.214177407,0.41373648,945.3522577,,,
552,Matola,-25.96222,32.45889,MZ,675422,19,0.088672769,0.111735271,1037.938708,,,
553,Culiacan,24.79032,-107.38782,MX,675000,11,0.194492255,0.29915527,952.3873978,,,
554,Zaragoza,41.65606,-0.87734,ES,674317,16,0.154194761,0.293711566,1525.62826,,,
555,Gorakhpur,26.76628,83.36889,IN,674246,14,0.167466987,0.25811902,10968.77134,,,
556,Xiangtan,27.85,112.9,CN,674189,17,0.130985915,0.216884255,8947.092882,,,
557,Ipoh,4.5841,101.0829,MY,673318,17,0.118743616,0.163630629,2524.876964,,,
558,Mississauga,43.5789,-79.6583,CA,668549,11,0.208064813,0.390978368,154.9032255,,,
559,Boston,42.35843,-71.05977,US,667137,11,0.2,0.349807685,14.51399593,,,
560,Puyang Chengguanzhen,35.70506,115.01409,CN,666322,17,0.133832206,0.21227069,1737.033905,,,
561,Nantong,32.03028,120.87472,CN,666251,18,0.130832356,0.222055159,10477.39092,,,
562,Mudanjiang,44.58333,129.6,CN,665915,18,0.125857091,0.18565331,1463.487367,,,
563,Athens,37.97945,23.71622,GR,664046,14,0.185345114,0.299639943,18404.00618,,,
564,Santo Andre,-23.66389,-46.53833,BR,662373,14,0.136046232,0.258569164,129.578527,,,
565,Nouakchott,18.08581,-15.9785,MR,661400,20,0.083618054,0.098997792,63.53168224,,,
566,Pointe-Noire,-4.77609,11.86352,CG,659084,18,0.100631199,0.124164048,50.17519286,,,
567,Aguascalientes,21.88234,-102.28259,MX,658179,10,0.214380573,0.33850014,1006.085374,,,
568,Memphis,35.14953,-90.04898,US,655770,11,0.218865001,0.387312122,1025.63756,,,
569,Kryvyi Rih,47.90966,33.38044,UA,652380,14,0.197592068,0.322672921,6599.586975,,,
570,Acapulco de Juarez,16.86336,-99.8901,MX,652136,10,0.20798822,0.318152128,56.41108667,,,
571,Joao Pessoa,-7.115,-34.86306,BR,650883,13,0.141214696,0.210842417,13.518657,,,
572,Ansan-si,37.32361,126.82194,KR,650728,18,0.127263604,0.209214566,2783.348804,,,
573,Benghazi,32.11486,20.06859,LY,650629,15,0.171978056,0.250737571,2956.215285,,,
574,Frankfurt am Main,50.11552,8.68417,DE,650000,15,0.176425952,0.381530382,919.306948,,,
575,Krasnodar,45.04484,38.97603,RU,649851,13,0.199856734,0.298716099,11471.19173,,,
576,Guilin,25.28194,110.28639,CN,649352,16,0.134057275,0.20383329,2140.184472,,,
577,Palermo,38.13205,13.33561,IT,648260,15,0.172980346,0.299777783,3757.510452,,,
578,Colombo,6.93194,79.84778,LK,648034,14,0.139884683,0.185790525,0.038851919,,,
579,Lilongwe,-13.96692,33.78725,MW,646750,17,0.105263158,0.131362808,8788.314191,,,
580,Oran,35.69906,-0.63588,DZ,645984,16,0.147697194,0.256090682,751.0794656,,,
581,Diyarbakir,37.91363,40.21721,TR,644763,13,0.19491407,0.279104817,4792.371606,,,
582,Taguig,14.5243,121.0792,PH,644473,19,0.110486298,0.170616186,1201.595645,,,
583,New South Memphis,35.08676,-90.05676,US,641608,11,0.218737902,0.385984689,902.1161686,,,
584,Ulyanovsk,54.32824,48.38657,RU,640680,13,0.193857699,0.267193201,32737.72782,,,
585,Kotli,33.51836,73.9022,PK,640000,13,0.181451613,0.252558745,4162.022964,,,
586,Okayama,34.65,133.93333,JP,639652,19,0.115061036,0.186448613,208.924007,,,
587,Zhanjiang,21.28145,110.34271,CN,637790,17,0.129142751,0.194002623,947.2004708,,,
588,Al Ahmadi,29.07694,48.08389,KW,637411,12,0.188335358,0.237434237,4519.002803,,,
589,Yogyakarta,-7.80139,110.36472,ID,636660,19,0.097542216,0.128699172,34.64941595,,,
590,North York,43.76681,-79.4163,CA,636000,11,0.207796984,0.389282203,132.2642046,,,
591,Chisinau,47.00556,28.8575,MD,635994,14,0.194764398,0.334698019,9005.388172,,,
592,Wroclaw,51.1,17.03333,PL,634893,15,0.185641094,0.375930328,6384.355612,,,
593,Cheongju-si,36.63722,127.48972,KR,634596,18,0.124966407,0.206440383,2037.007292,,,
594,Anyang-si,37.3925,126.92694,KR,634367,18,0.127246192,0.208796406,2691.841601,,,
595,Tebessa,35.40417,8.12417,DZ,634332,16,0.158874779,0.273214865,1050.663889,,,
596,Zhenjiang,32.21086,119.45508,CN,632552,18,0.130428685,0.21827977,3559.549618,,,
597,Portland,45.52345,-122.67621,US,632309,14,0.142532795,0.213152428,51.96769488,,,
598,Winnipeg,49.8844,-97.14704,CA,632063,12,0.181584445,0.267738446,2334.495619,,,
599,Dandong,40.12917,124.39472,CN,631973,18,0.128011012,0.20392338,1702.034435,,,
600,Oklahoma City,35.46756,-97.51643,US,631346,11,0.217684454,0.362385869,1575.141583,,,
601,Izhevsk,56.84976,53.20448,RU,631038,13,0.185950413,0.245351103,7428.129262,,,
602,Jaboatao dos Guararapes,-8.11278,-35.01472,BR,630008,13,0.141586267,0.212922063,19.21644485,,,
603,Shaoguan,24.8,113.58333,CN,628749,17,0.130507999,0.209794321,5793.539791,,,
604,Yancheng,33.3575,120.1573,CN,628441,18,0.130361648,0.220167464,5734.786645,,,
605,Coyoacan,19.3467,-99.16174,MX,628063,10,0.214910612,0.335311842,154.2698364,,,
606,Contagem,-19.93167,-44.05361,BR,627123,14,0.138412543,0.256538678,365.7673477,,,
607,Santiago de Queretaro,20.58806,-100.38806,MX,626495,10,0.211927982,0.333573887,144.311305,,,
608,Bhilai,21.20919,81.4285,IN,625138,14,0.162502184,0.261979191,1942.231886,,,
609,Panshan,41.18806,122.04944,CN,625040,18,0.134438394,0.209251233,7169.984218,,,
610,Djibouti,11.58901,43.14503,DJ,623891,14,0.144156247,0.171254336,951.9140655,,,
611,Las Vegas,36.17497,-115.13722,US,623747,12,0.17784073,0.284768385,1908.39484,,,
612,Baltimore,39.29038,-76.61219,US,621849,11,0.209181785,0.392954769,237.6612569,,,
613,Saltillo,25.42321,-101.0053,MX,621250,10,0.218357488,0.360920424,2087.522011,,,
614,Kermanshah,34.31417,47.065,IR,621100,12,0.19791445,0.259441548,5807.317393,,,
615,Ribeirao Preto,-21.1775,-47.81028,BR,619746,14,0.139213995,0.261804164,274.4573895,,,
616,Al Hudaydah,14.79781,42.95452,YE,617871,14,0.147712834,0.177805653,4028.317267,,,
617,Pasig City,14.58691,121.0614,PH,617301,19,0.110486298,0.170616186,1201.595645,,,
618,Bristol,51.45523,-2.59665,GB,617280,16,0.160050482,0.327392123,108.5854971,,,
619,Jamshedpur,22.80278,86.18545,IN,616338,14,0.159620116,0.243977411,613.6793878,,,
620,Haikou,20.04583,110.34167,CN,615835,17,0.12923248,0.194247545,2616.058662,,,
621,Ta`izz,13.57952,44.02091,YE,615222,14,0.146672274,0.17542783,3039.538475,,,
622,Sao Jose dos Campos,-23.17944,-45.88694,BR,613764,14,0.139162562,0.262246642,236.2466778,,,
623,Taizhou,32.49069,119.90812,CN,612356,18,0.130465279,0.21911609,4283.729633,,,
624,Xingtai,37.06306,114.49417,CN,611739,17,0.133684715,0.210598049,1100.305352,,,
625,Borivli,19.23496,72.85976,IN,609617,13,0.16584438,0.242678788,1806.123972,,,
626,Tlalpan,19.29513,-99.16206,MX,607545,10,0.214910612,0.335311842,154.2698364,,,
627,Yaroslavl,57.62987,39.87368,RU,606730,14,0.185308183,0.272272707,4239.401598,,,
628,Benoni,-26.18848,28.32078,ZA,605344,19,0.088681224,0.112272905,1696.25432,,,
629,Hamamatsu,34.7,137.73333,JP,605098,19,0.113998529,0.179828753,78.40840252,,,
630,Cochin,9.93988,76.26022,IN,604696,14,0.147736299,0.205077286,15.10926476,,,
631,Jinzhou,41.10778,121.14167,CN,604269,18,0.134522662,0.210463897,8066.035639,,,
632,Amravati,20.93333,77.75,IN,603837,13,0.171597269,0.267465441,1778.511691,,,
633,Abu Dhabi,24.46667,54.36667,AE,603492,11,0.183179043,0.219442802,17874.71116,,,
634,Haiphong,20.86481,106.68345,VN,602695,16,0.134639514,0.200676557,7375.861138,,,
635,"""Washington, D.C.""",38.89511,-77.03637,US,601723,11,0.210506706,0.398138081,363.3280014,,,
636,Islamabad,33.72148,73.04329,PK,601600,12,0.183130948,0.250580407,3662.419139,,,
637,Kirkuk,35.46806,44.39222,IQ,601433,12,0.197886375,0.270187513,7928.38772,,,
638,Sangli,16.85438,74.56417,IN,601214,13,0.160243524,0.239806465,1188.608105,,,
639,Milwaukee,43.0389,-87.90647,US,600155,11,0.212087087,0.3658983,203.2316098,,,
640,Scarborough,43.77223,-79.25666,CA,600000,11,0.206619126,0.385352578,112.0863625,,,
641,Vancouver,49.24966,-123.11934,CA,600000,14,0.13887182,0.200268861,6.819021801,,,
642,Situbondo,-7.70623,114.00976,ID,600000,19,0.098649318,0.13338369,724.1212219,,,
643,Shuangyashan,46.63611,131.15389,CN,600000,18,0.125230037,0.177611408,1974.507735,,,
644,Barnaul,53.36056,83.76361,RU,599579,14,0.169296117,0.195558183,7168.979033,,,
645,Rotterdam,51.9225,4.47917,NL,598199,16,0.16783974,0.364194855,286.8738119,,,
646,Luancheng,37.87917,114.65167,CN,597130,17,0.137934444,0.212120676,4162.733367,,,
647,Mexicali,32.62781,-115.45446,MX,597099,12,0.175985049,0.280706017,3489.830805,,,
648,Hermosillo,29.1026,-110.97732,MX,595811,11,0.193758573,0.296196989,4317.182316,,,
649,Rasht,37.27611,49.58862,IR,594590,12,0.195693344,0.259699607,10539.06411,,,
650,Abeokuta,7.15571,3.34509,NG,593100,18,0.100754758,0.138986116,2515.897026,,,
651,Essen,51.45657,7.01228,DE,593085,16,0.170976835,0.375165826,736.8985751,,,
652,Kayseri,38.73222,35.48528,TR,592840,13,0.19412747,0.29239707,6761.347324,,,
653,Morelia,19.70078,-101.18443,MX,592797,10,0.211650122,0.332615185,120.5136515,,,
654,Glasgow,55.86515,-4.25763,GB,591620,16,0.157458096,0.297633783,17.4681166,,,
655,Gold Coast,-28.00029,153.43088,AU,591473,2,0.703703704,0.789473684,0.533928571,,,
656,Yingkou,40.66482,122.22833,CN,591159,18,0.134893391,0.212067413,8526.896288,,,
657,Abuja,9.05785,7.49508,NG,590400,18,0.100758397,0.139971779,227.8870471,,,
658,Zhangzhou,24.51333,117.65556,CN,589831,17,0.126714506,0.203002451,3521.477,,,
659,Stuttgart,48.78232,9.17702,DE,589793,15,0.177165354,0.388507682,2171.749588,,,
660,Dortmund,51.51494,7.466,DE,588462,16,0.17102924,0.375822935,779.5422085,,,
661,Vladivostok,43.10562,131.87353,RU,587022,19,0.122729072,0.193653951,21303.91958,,,
662,Irkutsk,52.29778,104.29639,RU,586695,16,0.149493651,0.180702349,12420.82293,,,
663,Blantyre,-15.78499,35.00854,MW,584877,18,0.097036728,0.121941238,178.5224806,,,
664,New Kingston,18.00747,-76.78319,JM,583958,8,0.240938166,0.314142436,26074.53102,,,
665,UEskuedar,41.02252,29.02369,TR,582666,14,0.19156825,0.311437456,5220.172302,,,
666,Genoa,44.40478,8.94439,IT,580223,15,0.175471698,0.369227088,3815.169348,,,
667,Oslo,59.91273,10.74609,NO,580000,15,0.166418133,0.292888407,3748.181446,,,
668,Cuttack,20.46497,85.87927,IN,580000,14,0.159437682,0.241139897,643.8810934,,,
669,Hachioji,35.65583,139.32389,JP,579399,19,0.111958266,0.174440762,30.7404192,,,
670,Khabarovsk,48.48271,135.08379,RU,579000,19,0.118971472,0.163410593,176.8231921,,,
671,Khabarovsk Vtoroy,48.43776,135.13329,RU,578303,19,0.118971472,0.163410593,176.8231921,,,
672,Libreville,0.39241,9.45356,GA,578156,18,0.101068647,0.134397022,3969.62959,,,
673,Kerman,30.28321,57.07879,IR,577514,11,0.19057377,0.238409789,35747.2327,,,
674,Chiclayo,-6.77137,-79.84088,PE,577375,10,0.191428087,0.231091094,2897.768934,,,
675,Orumiyeh,37.55274,45.07605,IR,577307,12,0.195104895,0.268349651,5328.959148,,,
676,Bahcelievler,41.00231,28.8598,TR,576799,14,0.191541947,0.311198508,4824.203678,,,
677,Bengbu,32.94083,117.36083,CN,576648,17,0.133652695,0.21623172,6381.79121,,,
678,Bikaner,28.01762,73.31495,IN,576015,13,0.177990431,0.264614414,3003.120157,,,
679,Umraniye,41.01643,29.12476,TR,573265,14,0.191436805,0.310720611,4524.817373,,,
680,Duesseldorf,51.22172,6.77616,DE,573057,16,0.170924462,0.374538586,684.4747836,,,
681,Banjarmasin,-3.31987,114.59075,ID,572837,19,0.098911618,0.136342813,1824.907159,,,
682,Goeteborg,57.70716,11.96679,SE,572799,15,0.174604168,0.331906196,2514.5224,,,
683,Shihezi,44.3023,86.03694,CN,572772,14,0.167859936,0.199488681,54205.77291,,,
684,Bucaramanga,7.12539,-73.1198,CO,571820,9,0.208833857,0.267744768,110.141055,,,
685,South Boston,42.33343,-71.04949,US,571281,11,0.2,0.349807685,14.51399593,,,
686,Kuching,1.55,110.33333,MY,570407,18,0.108852561,0.153801267,25266.72827,,,
687,Poznan,52.40692,16.92993,PL,570352,15,0.185099184,0.370924354,4540.700865,,,
688,Veracruz,19.18095,-96.1429,MX,568313,9,0.229395047,0.353762467,11366.51699,,,
689,Malaga,36.72016,-4.42034,ES,568305,17,0.142630745,0.249951116,255.4687453,,,
690,Bouake,7.69385,-5.03031,CI,567481,19,0.091758206,0.119120034,5277.805998,,,
691,Asmara,15.33805,38.93184,ER,563930,14,0.147736299,0.178343288,4364.126132,,,
692,Sokoto,13.06269,5.24322,NG,563861,18,0.100489843,0.137355292,380.8017271,,,
693,Uberlandia,-18.91861,-48.27722,BR,563536,14,0.139678616,0.261559748,612.1953026,,,
694,Onitsha,6.14978,6.78569,NG,561066,18,0.100736568,0.13889651,455.8941652,,,
695,Honcho,35.70129,139.98648,JP,560743,20,0.109959406,0.171865214,21.76905893,,,
696,Albuquerque,35.08449,-106.65114,US,559121,12,0.194760427,0.318571397,3872.804669,,,
697,Hamhung,39.91833,127.53639,KP,559056,19,0.124071686,0.20138081,3663.725617,,,
698,Sorocaba,-23.50167,-47.45806,BR,558862,14,0.139265467,0.262836613,220.950063,,,
699,Helsinki,60.16952,24.93545,FI,558457,14,0.178354536,0.289495109,3805.28939,,,
700,Warangal,18,79.58333,IN,557802,14,0.161383619,0.251156525,1314.378116,,,
701,Santiago de Cuba,20.02083,-75.82667,CU,555865,8,0.241246798,0.312277708,20444.73671,,,
702,Siping,43.16143,124.37785,CN,555609,18,0.131647242,0.198786563,6653.828804,,,
703,Kagoshima,31.56667,130.55,JP,555352,19,0.118050267,0.195636472,1976.195497,,,
704,Surakarta,-7.55611,110.83167,ID,555308,19,0.098412698,0.131834093,1134.78064,,,
705,Huai'an,33.58861,119.01917,CN,555230,18,0.131182998,0.220088966,4511.053842,,,
706,Bhavnagar,21.76287,72.15331,IN,554978,13,0.166279278,0.248712241,1146.12307,,,
707,Mar del Plata,-38.00228,-57.55754,AR,553935,15,0.122188581,0.189406994,7.230479918,,,
708,Bahawalpur,29.4,71.68333,PK,552607,12,0.185320492,0.263482637,16085.19641,,,
709,Zahedan,29.4963,60.8629,IR,551980,11,0.191673537,0.240539108,113215.1483,,,
710,Aden,12.77944,45.03667,YE,550602,14,0.143172371,0.169055724,874.3303058,,,
711,Nanded,19.16023,77.31497,IN,550564,13,0.16567696,0.254712579,1186.71178,,,
712,Orenburg,51.7727,55.0988,RU,550204,13,0.187248322,0.240339074,11527.56835,,,
713,Changwon,35.22806,128.68111,KR,550000,18,0.125134553,0.207625739,10041.98178,,,
714,Pristina,42.67272,21.16688,XK,550000,14,0.188081435,0.334830928,4867.064247,,,
715,Jiamusi,46.79927,130.31633,CN,549549,18,0.125269397,0.178358123,2135.285784,,,
716,Antipolo,14.62578,121.12251,PH,549543,19,0.110486298,0.170616186,1201.595645,,,
717,Neijiang,29.58354,105.06216,CN,546854,16,0.142718298,0.212500213,49090.50348,,,
718,Bremen,53.07516,8.80777,DE,546501,15,0.172147837,0.374234579,1073.084538,,,
719,Meknes,33.89352,-5.54727,MA,545705,17,0.13915906,0.222527223,25.61582492,,,
720,Sharjah,25.33737,55.41206,AE,543733,11,0.184121956,0.222510732,54727.1679,,,
721,Banqiao,25.01427,121.46719,TW,543342,18,0.123287671,0.195755511,1406.024935,,,
722,Sargodha,32.08361,72.67111,PK,542603,12,0.185591698,0.257842596,11121.56761,,,
723,Bangui,4.36122,18.55496,CF,542393,17,0.111252891,0.141756815,3354.080667,,,
724,Vilnius,54.68916,25.2798,LT,542366,14,0.186859554,0.333741732,9695.13767,,,
725,Cancun,21.17429,-86.84656,MX,542043,9,0.23356759,0.336423304,12459.3149,,,
726,Yangzhou,32.39722,119.43583,CN,539715,18,0.130465279,0.218996616,4316.621215,,,
727,Novokuznetsk,53.7557,87.1099,RU,539616,15,0.166836094,0.19382463,48473.72585,,,
728,Kisangani,0.51528,25.19099,CD,539158,16,0.123719569,0.155338091,27283.46259,,,
729,Port Said,31.25654,32.28411,EG,538378,14,0.181262994,0.253101834,7433.653753,,,
730,Mercin,36.79526,34.61792,TR,537842,13,0.193655862,0.28407721,12975.39792,,,
731,Warri,5.51737,5.75006,NG,536023,18,0.100718386,0.138000453,316.2250537,,,
732,Guli,28.88162,120.03308,CN,536000,18,0.124276169,0.206236442,1754.6395,,,
733,Ebute Ikorodu,6.60086,3.48818,NG,535619,18,0.100765675,0.139284802,2703.177055,,,
734,Tanggu,39.02111,117.64694,CN,535298,18,0.13516787,0.214244406,5000.915957,,,
735,Jiangmen,22.58333,113.08333,CN,532419,17,0.129815745,0.200009375,2158.186936,,,
736,Tucson,32.22174,-110.92648,US,531641,12,0.18379961,0.289375615,981.4951058,,,
737,Nashville,36.16589,-86.78444,US,530852,11,0.230706411,0.409560172,2818.709129,,,
738,Ta'if,21.27028,40.41583,SA,530848,13,0.167226085,0.203362795,12285.19139,,,
739,Beira,-19.84361,34.83889,MZ,530604,18,0.096636764,0.121006779,7145.6657,,,
740,Guntur,16.29974,80.45729,IN,530577,14,0.156101382,0.239643481,1522.90118,,,
741,Touba,14.85,-15.88333,SN,529176,20,0.083680753,0.100323957,518.1882145,,,
742,Quebec,46.81228,-71.21454,CA,528595,12,0.180050988,0.314908695,2.434097735,,,
743,Hamadan,34.79922,48.51456,IR,528256,12,0.194276165,0.255810719,6413.682471,,,
744,Cangzhou,38.31667,116.86667,CN,527681,18,0.135233387,0.215367464,7541.601004,,,
745,San Salvador,13.68935,-89.18718,SV,525990,8,0.232845662,0.307352507,4124.385212,,,
746,Santa Maria Chimalhuacan,19.42155,-98.95038,MX,525389,10,0.216267943,0.338291193,181.5101945,,,
747,Torreon,25.54389,-103.41898,MX,524066,11,0.205566673,0.34811037,1550.953776,,,
748,Dehra Dun,30.32443,78.03392,IN,522081,13,0.177752294,0.257076011,5717.780796,,,
749,Cuiaba,-15.59611,-56.09667,BR,521934,14,0.139661352,0.215755464,307.0411297,,,
750,Cuauhtemoc,19.44506,-99.14612,MX,521348,10,0.214910612,0.335311842,154.2698364,,,
751,Adolfo Lopez Mateos,19.58722,-99.26356,MX,521034,10,0.214910612,0.335311842,154.2698364,,,
752,Petaling Jaya,3.10726,101.60671,MY,520698,17,0.118320611,0.16297537,3125.679201,,,
753,Macau,22.20056,113.54611,MO,520400,17,0.130075994,0.202440677,28093.68868,,,
754,Bhayandar,19.30157,72.85107,IN,520301,13,0.165864098,0.243037211,1639.446573,,,
755,Esenler,41.0435,28.87619,TR,520235,14,0.191541947,0.311198508,4824.203678,,,
756,Ryazan',54.6269,39.6916,RU,520173,14,0.189062818,0.284586282,1544.664298,,,
757,Fresno,36.74773,-119.77237,US,520052,13,0.160922814,0.252139289,863.114788,,,
758,Hamilton,43.25011,-79.84963,CA,519949,11,0.208103131,0.391715831,140.2307868,,,
759,Tyumen,57.15222,65.52722,RU,519119,14,0.181984215,0.219982367,25660.54501,,,
760,Durgapur,23.51583,87.30801,IN,518872,14,0.161038961,0.24447195,7424.984674,,,
761,Quilmes,-34.72904,-58.26374,AR,518788,14,0.133254717,0.210080831,100.7195935,,,
762,Ajmer,26.4521,74.63867,IN,517911,13,0.17669411,0.268618795,1960.309223,,,
763,Lisbon,38.71667,-9.13333,PT,517802,17,0.140603739,0.239086789,76.94099196,,,
764,Changde,29.04638,111.6783,CN,517780,17,0.135621233,0.218362151,15856.60268,,,
765,Jiaozuo,35.23972,113.23306,CN,517540,17,0.135978166,0.214886143,6844.948428,,,
766,Ulhasnagar,19.21667,73.15,IN,516584,13,0.16699587,0.245695087,1579.339597,,,
767,Kolhapur,16.69563,74.23167,IN,516142,13,0.160133157,0.23885067,1106.761129,,,
768,Lipetsk,52.60311,39.57076,RU,515655,14,0.19023592,0.291862268,3076.834091,,,
769,Shiliguri,26.71004,88.42851,IN,515574,14,0.160557058,0.239095606,5458.005604,,,
770,Hannover,52.37052,9.73322,DE,515140,15,0.176025237,0.379704985,1258.01111,,,
771,Eskisehir,39.77667,30.52056,TR,514869,13,0.197298635,0.310283939,21254.07164,,,
772,Azadshahr,34.79049,48.57011,IR,514102,12,0.194276165,0.255810719,6413.682471,,,
773,Salta,-24.7859,-65.41166,AR,512686,13,0.149946921,0.220008598,16894.60183,,,
774,Penza,53.20066,45.00464,RU,512602,13,0.196950445,0.277711532,29656.13989,,,
775,Tembisa,-25.99636,28.2268,ZA,511655,19,0.088681224,0.112272905,1696.25432,,,
776,Bilimora,20.76957,72.96134,IN,510879,13,0.168457916,0.25057988,1859.163189,,,
777,Mykolayiv,46.96591,31.9974,UA,510840,14,0.194465742,0.325184153,9158.116698,,,
778,Aparecida de Goiania,-16.82333,-49.24389,BR,510770,14,0.139368525,0.25551255,548.493839,,,
779,Puente Alto,-33.61169,-70.57577,CL,510417,14,0.132132834,0.190686988,297.1747847,,,
780,Makati City,14.55027,121.03269,PH,510383,19,0.110486298,0.170616186,1201.595645,,,
781,Naberezhnyye Chelny,55.72545,52.41122,RU,509870,13,0.188717532,0.249980366,12573.06363,,,
782,Leicester,52.6386,-1.13169,GB,508916,16,0.161477023,0.330699496,41.70491956,,,
783,Wuhu,31.33728,118.37351,CN,507524,17,0.133225098,0.216495404,10735.09958,,,
784,Toluca,19.28786,-99.65324,MX,505881,10,0.214869747,0.334869364,102.5283977,,,
785,Niigata,37.88637,139.00589,JP,505272,19,0.113845024,0.177050975,42.48839345,,,
786,Karol Bagh,28.65136,77.19072,IN,505241,13,0.172573761,0.26046069,1803.802605,,,
787,Leipzig,51.33962,12.37129,DE,504971,15,0.182114883,0.382853706,2880.342322,,,
788,Kalininskiy,59.99675,30.3899,RU,504641,14,0.180290792,0.276199123,910.7284363,,,
789,Duisburg,51.43247,6.76516,DE,504358,16,0.168896422,0.373020451,583.2688437,,,
790,Asansol,23.68333,86.98333,IN,504271,14,0.161355619,0.246788471,10195.96996,,,
791,Arak,34.09174,49.68916,IR,503647,12,0.19166037,0.249245605,2325.458894,,,
792,Astrakhan,46.34968,48.04076,RU,502533,13,0.197634058,0.268528586,7856.675113,,,
793,Zhuhai,22.27694,113.56778,CN,501199,17,0.13006993,0.202261466,20200.69648,,,
794,Pohang,36.02917,129.36481,KR,500000,19,0.12258348,0.206279438,13468.82293,,,
795,Nuernberg,49.45421,11.07752,DE,499237,15,0.177154105,0.383065627,1888.5276,,,
796,Shashi,30.30722,112.24472,CN,498780,17,0.135063175,0.217304804,5205.177209,,,
797,Reynosa,26.08061,-98.28835,MX,498654,10,0.225368967,0.37410486,2627.145122,,,
798,Makhachkala,42.97638,47.50236,RU,497959,12,0.201284179,0.272291916,44010.91015,,,
799,Cimahi,-6.87222,107.5425,ID,493698,19,0.102664115,0.138165387,1444.080805,,,
800,Tlaquepaque,20.64091,-103.29327,MX,493646,10,0.212725904,0.332806925,335.4180658,,,
801,Wuwei,37.92672,102.63202,CN,493092,17,0.140285599,0.190212642,2411.911063,,,
802,Jamnagar,22.47292,70.06673,IN,492056,12,0.174440415,0.247413485,10499.62232,,,
803,Sacramento,38.58157,-121.4944,US,490712,13,0.154540481,0.241903841,258.6815861,,,
804,Aracaju,-10.91111,-37.07167,BR,490175,13,0.142965587,0.223069556,94.79513785,,,
805,Port Sudan,19.61745,37.21644,SD,489725,13,0.165588462,0.203401822,80426.69106,,,
806,Santa Fe de la Vera Cruz,-31.63333,-60.7,AR,489505,14,0.136046232,0.222509575,1370.982468,,,
807,San Pedro Sula,15.50417,-88.025,HN,489466,8,0.236996644,0.314682891,4543.992306,,,
808,Suez,29.97371,32.52627,EG,488125,13,0.18082831,0.246441926,1987.627701,,,
809,Dresden,51.05089,13.73832,DE,486854,15,0.182043586,0.378253945,2363.050761,,,
810,Tomsk,56.49771,84.97437,RU,485519,15,0.164252914,0.190907388,11437.49004,,,
811,Masina,-4.38361,15.39139,CD,485167,18,0.101116266,0.127451298,1581.813181,,,
812,Saharanpur,29.9679,77.54522,IN,484873,13,0.177922326,0.259525235,6406.494537,,,
813,Gulbarga,17.33583,76.83757,IN,483615,13,0.161711007,0.245115391,1397.948863,,,
814,Bhatpara,22.86643,88.40113,IN,483129,14,0.161206448,0.240836517,8293.015826,,,
815,Najaf,32.02594,44.34625,IQ,482576,12,0.192069393,0.256994859,5496.474268,,,
816,Feira de Santana,-12.26667,-38.96667,BR,481911,13,0.145020534,0.234565201,782.4136856,,,
817,Shah Alam,3.08507,101.53281,MY,481654,17,0.118320611,0.16297537,3125.679201,,,
818,Mariupol,47.09514,37.54131,UA,481626,13,0.200777202,0.308520944,11207.24826,,,
819,Himeji,34.81667,134.7,JP,481493,19,0.115056291,0.186269402,203.8433724,,,
820,Tuxtla,16.75973,-93.11308,MX,481128,9,0.224830879,0.332219764,3924.721358,,,
821,Gomel,52.4345,30.9754,BY,480951,14,0.196451204,0.325858683,24911.41319,,,
822,Okene,7.55122,6.23589,NG,479178,18,0.100751119,0.139613356,519.9887731,,,
823,Uijeongbu-si,37.7415,127.0474,KR,479141,18,0.127240389,0.208617195,2764.977633,,,
824,East London,-33.01529,27.91162,ZA,478676,20,0.081564638,0.101580504,952.0474337,,,
825,Yazd,31.89722,54.3675,IR,477905,11,0.19023592,0.242542644,17906.76869,,,
826,Hargeysa,9.56,44.065,SO,477876,14,0.143267947,0.169665043,9128.345602,,,
827,Sialkot,32.49268,74.53134,PK,477396,13,0.182091111,0.256423739,7518.719632,,,
828,Kemerovo,55.33333,86.08333,RU,477090,15,0.166856049,0.193845836,80444.67154,,,
829,Yichang,30.71444,111.28472,CN,476725,17,0.135945037,0.217746018,10674.74052,,,
830,Hwaseong-si,37.20682,126.8169,KR,476297,18,0.127251995,0.208975618,2739.98902,,,
831,Kansas City,39.09973,-94.57857,US,475378,11,0.215813598,0.368140188,2416.045717,,,
832,Cuautitlan Izcalli,19.64388,-99.21598,MX,475179,10,0.214910612,0.335311842,154.2698364,,,
833,Yinchuan,38.46806,106.27306,CN,475101,17,0.141862002,0.203375298,5652.65327,,,
834,Skopje,41.99646,21.43141,MK,474889,14,0.186709496,0.32927777,7356.552682,,,
835,Vereeniging,-26.67313,27.92615,ZA,474681,19,0.088523654,0.110258056,65.661566,,,
836,The Hague,52.07667,4.29861,NL,474292,16,0.166567164,0.362864968,273.7564507,,,
837,Long Beach,33.76696,-118.18923,US,474140,12,0.167159763,0.25485056,45.48016918,,,
838,Mixco,14.63333,-90.60639,GT,473080,9,0.222616233,0.305956946,827.4690308,,,
839,Lyon,45.74846,4.84671,FR,472317,16,0.16876361,0.36636512,2621.268709,,,
840,Londrina,-23.31028,-51.16278,BR,471832,14,0.139816877,0.264583347,646.1225185,,,
841,Mesa,33.42227,-111.82264,US,471825,12,0.18394921,0.29205998,2225.140707,,,
842,Jiaojiang,28.68028,121.44278,CN,470804,18,0.124375892,0.205639071,2547.523411,,,
843,Matsudo,35.77995,139.90144,JP,470277,19,0.111917847,0.173604442,23.7534863,,,
844,Juiz de Fora,-21.76417,-43.35028,BR,470193,14,0.133838683,0.249688831,103.7423258,,,
845,Nishinomiya-hama,34.71562,135.33199,JP,468925,19,0.115051546,0.18609019,191.3038007,,,
846,Tula,54.19609,37.61822,RU,468825,14,0.19104355,0.294867047,4602.025014,,,
847,Staten Island,40.56233,-74.13986,US,468730,11,0.206619126,0.374680433,140.1172515,,,
848,Kawaguchi,35.80521,139.71072,JP,468565,19,0.111926826,0.173843391,26.03971419,,,
849,Zunyi,27.68667,106.90722,CN,466292,16,0.138016325,0.206083985,2947.250631,,,
850,Jiaxing,30.7522,120.75,CN,466101,18,0.128749423,0.21790662,6068.354463,,,
851,Belford Roxo,-22.76417,-43.39944,BR,466096,14,0.133933863,0.250795026,109.803196,,,
852,Jammu,32.73569,74.86911,IN,465567,13,0.182043586,0.255706893,6781.672053,,,
853,Liaoyuan,42.90361,125.13583,CN,465249,18,0.127107062,0.194291587,920.8839635,,,
854,Edinburgh,55.95206,-3.19648,GB,464990,16,0.158947189,0.303990302,25.34052895,,,
855,Atlanta,33.749,-84.38798,US,463878,10,0.238095238,0.407590954,4384.126714,,,
856,Kananga,-5.89624,22.41659,CD,463546,17,0.111306152,0.139205185,6589.964044,,,
857,Bloemfontein,-29.12107,26.214,ZA,463064,20,0.081567022,0.101759716,954.3004877,,,
858,Xiangyang,32.0422,112.14479,CN,462956,17,0.135700389,0.215320689,5632.867429,,,
859,Gdansk,54.35205,18.64637,PL,461865,15,0.183649289,0.353021129,4569.395182,,,
860,Calabar,4.95893,8.32695,NG,461796,18,0.100700209,0.138191612,168.3239651,,,
861,Dadukou,26.5479,101.70539,CN,461513,15,0.146849834,0.208654573,27638.53428,,,
862,Joinville,-26.30444,-48.84556,BR,461304,15,0.128307029,0.249429646,162.3995553,,,
863,Hamah,35.13179,36.75783,SY,460602,13,0.193481276,0.27608372,4577.670916,,,
864,Antwerpen,51.21989,4.40346,BE,459805,16,0.167910448,0.364851964,285.5862124,,,
865,Kanazawa,36.6,136.61667,JP,458937,19,0.115065781,0.186747299,290.4700655,,,
866,Karabaglar,38.37396,27.1352,TR,458000,14,0.192586457,0.303742018,20897.37356,,,
867,Zamboanga,6.91028,122.07389,PH,457623,19,0.103295076,0.156647212,5435.901192,,,
868,Kirov,58.59665,49.66007,RU,457383,13,0.186934673,0.250101913,15067.1336,,,
869,Ujjain,23.18239,75.77643,IN,457346,13,0.170966358,0.265822669,2314.341118,,,
870,Kota Kinabalu,5.9749,116.0724,MY,457326,19,0.100623941,0.14282566,568.7133346,,,
871,Victoria de Durango,24.02032,-104.65756,MX,457140,10,0.21284611,0.340846678,6745.929141,,,
872,Colorado Springs,38.83388,-104.82136,US,456568,12,0.192832765,0.310985391,3546.849124,,,
873,Niteroi,-22.88333,-43.10361,BR,456456,14,0.133870395,0.249025115,93.51184008,,,
874,Hengshui,37.73222,115.70111,CN,456356,17,0.133256914,0.212036293,1204.778567,,,
875,Tabuk,28.3998,36.57151,SA,455450,13,0.182747102,0.24012552,51685.89828,,,
876,Pontianak,-0.03194,109.325,ID,455173,18,0.10779276,0.151047811,25813.30773,,,
877,Leeds,53.79648,-1.54785,GB,455123,16,0.160908934,0.323050579,72.85272768,,,
878,Namp'o,38.7375,125.40778,KP,455000,18,0.128181568,0.208403667,5873.749795,,,
879,Bacolod City,10.66667,122.95,PH,454898,19,0.106039299,0.161783723,521.5094608,,,
880,Sao Joao de Meriti,-22.80389,-43.37222,BR,454849,14,0.133933863,0.250795026,109.803196,,,
881,Mansilingan,10.63111,122.97889,PH,454150,19,0.106039299,0.161783723,521.5094608,,,
882,Virginia Beach,36.85293,-75.97799,US,452745,11,0.210232558,0.389539261,278.4238135,,,
883,Ramgundam,18.80084,79.45206,IN,452261,13,0.164669775,0.256785472,1905.231831,,,
884,Luhansk,48.56705,39.31706,UA,452000,13,0.200229654,0.29829309,4419.480891,,,
885,Manado,1.48218,124.84892,ID,451893,20,0.096463023,0.136564252,4936.799645,,,
886,Karagandy,49.83333,73.1658,KZ,451800,13,0.184927421,0.218827642,14750.11211,,,
887,Raleigh,35.7721,-78.63861,US,451066,10,0.228698644,0.407438194,2725.358709,,,
888,Jining,35.405,116.58139,CN,450327,17,0.133607892,0.217029892,2517.389846,,,
889,Constantine,36.365,6.61472,DZ,450097,16,0.159410353,0.280353455,3590.060334,,,
890,Juba,4.85165,31.58247,SS,450000,15,0.132127297,0.16426341,90833.0548,,,
891,Muratpasa,36.89157,30.76498,TR,450000,13,0.193387399,0.291371156,5112.08,,,
892,Wenshan City,23.36306,104.25047,CN,450000,16,0.142412332,0.211153644,77942.02922,,,
893,Utsunomiya,36.56667,139.88333,JP,449865,20,0.111720658,0.173161209,15.70374941,,,
894,Heroica Matamoros,25.87972,-97.50417,MX,449815,10,0.226589132,0.377408695,4579.260599,,,
895,Sanliurfa,37.16708,38.79392,TR,449549,13,0.196133568,0.284119221,15310.92375,,,
896,Chengde,40.9519,117.95883,CN,449325,18,0.13456808,0.208153776,3327.604024,,,
897,Jiangguanchi,34.12821,113.80681,CN,449258,17,0.135239942,0.213428728,3930.052749,,,
898,Oita,33.23333,131.6,JP,448907,19,0.117895626,0.195197831,812.0842683,,,
899,Venustiano Carranza,19.44361,-99.10499,MX,447459,10,0.214910612,0.335311842,154.2698364,,,
900,Cardiff,51.48,-3.18,GB,447287,16,0.158874779,0.323406885,90.93341699,,,
901,San Juan,-31.5375,-68.53639,AR,447048,14,0.135637979,0.201757584,5514.319288,,,
902,Cheboksary,56.13222,47.25194,RU,446781,13,0.193467859,0.264469187,37465.23293,,,
903,Boksburg,-26.21197,28.25958,ZA,445168,19,0.088681224,0.112272905,1696.25432,,,
904,Cagayan de Oro,8.48222,124.64722,PH,445103,19,0.10604736,0.161574643,705.961719,,,
905,Omaha,41.25626,-95.94043,US,443885,12,0.207415565,0.353276379,1434.177461,,,
906,Matsuyama,33.83916,132.76574,JP,443322,19,0.115873411,0.189072639,718.2329378,,,
907,San Nicolas de los Garza,25.74167,-100.30222,MX,443273,10,0.222178529,0.367998666,2336.560038,,,
908,Amagasaki,34.71667,135.41667,JP,442173,19,0.115051546,0.18609019,191.3038007,,,
909,Carrefour,18.54114,-72.39922,HT,442156,8,0.230706411,0.294115044,2408.946648,,,
910,Shyamnagar,22.83333,88.36667,IN,441956,14,0.161206448,0.240836517,8293.015826,,,
911,Dasmarinas,14.32944,120.93667,PH,441876,19,0.110731862,0.172641276,2789.389157,,,
912,Malatya,38.35018,38.31667,TR,441805,13,0.196202532,0.28457674,10467.19615,,,
913,Miami,25.77427,-80.19366,US,441003,9,0.244641697,0.347849417,9855.111008,,,
914,Nangi,22.50833,88.21528,IN,440894,14,0.161234397,0.241374152,9039.442461,,,
915,Pereira,4.81333,-75.69611,CO,440118,9,0.217516843,0.275822096,4078.684939,,,
916,Kozhikode,11.24802,75.7804,IN,439922,14,0.149094213,0.212036807,91.08027089,,,
917,Mawlamyine,16.49051,97.62825,MM,438861,16,0.138413454,0.19399756,26803.30647,,,
918,Iquitos,-3.74912,-73.25383,PE,437620,10,0.199893862,0.24949396,52185.62965,,,
919,Kurashiki,34.58333,133.76667,JP,437581,19,0.115056291,0.186269402,198.5624899,,,
920,Sultangazi,41.10652,28.86847,TR,436935,14,0.191541947,0.311198508,4824.203678,,,
921,Garoua,9.30143,13.39771,CM,436899,17,0.111005013,0.148932527,9785.36912,,,
922,Murcia,37.98704,-1.13004,ES,436870,16,0.152068458,0.270223769,1027.460667,,,
923,Mwanza,-2.51667,32.9,TZ,436801,16,0.118355746,0.150099311,4261.556574,,,
924,Uyo,5.05127,7.9335,NG,436606,18,0.100696575,0.1380124,156.9473468,,,
925,Bei'an,48.26667,126.6,CN,436444,18,0.129394305,0.179047842,604.5721575,,,
926,Tirunelveli,8.72518,77.68452,IN,435844,14,0.141869216,0.195231556,3.781318775,,,
927,Kousseri,12.07689,15.03063,CM,435547,17,0.110855054,0.14361592,1401.449889,,,
928,Malegaon,20.54966,74.53462,IN,435362,13,0.168988492,0.256015535,2575.683324,,,
929,Kaliningrad,54.70649,20.51095,RU,434954,15,0.182854896,0.341855401,4686.783393,,,
930,Karbala,32.61603,44.02488,IQ,434450,12,0.193521537,0.259936487,6612.977963,,,
931,Masan,35.12725,126.83149,KR,434371,18,0.125224417,0.208462059,2850.417707,,,
932,Ananindeua,-1.36556,-48.37222,BR,433956,12,0.156488021,0.202847406,291.0104817,,,
933,Balikpapan,-1.26753,116.82887,ID,433866,19,0.100125606,0.138549244,1574.390348,,,
934,Brampton,43.68341,-79.76633,CA,433806,11,0.207873436,0.390167158,144.1232162,,,
935,Toulouse,43.60426,1.44367,FR,433055,16,0.162067964,0.338843812,2783.681892,,,
936,Namangan,40.9983,71.67257,UZ,432456,13,0.182890855,0.23139131,5053.986683,,,
937,Katsina,12.99082,7.60177,NG,432149,17,0.11058264,0.149320819,25517.22767,,,
938,Welkom,-27.97742,26.73506,ZA,431944,19,0.088529272,0.110616479,1006.836389,,,
939,Santa Marta,11.24079,-74.19904,CO,431781,8,0.229023105,0.299096081,26383.2949,,,
940,Al Mahallah al Kubra,30.97063,31.1669,EG,431052,14,0.181086519,0.251548668,6576.080308,,,
941,Jalgaon,21.00292,75.56602,IN,429298,13,0.167940769,0.257689882,1446.152521,,,
942,Yokosuka,35.28361,139.66722,JP,428992,19,0.111926826,0.173843391,26.03971419,,,
943,Akola,20.70957,76.9981,IN,428857,13,0.169811321,0.263533456,1456.518602,,,
944,Belgaum,15.85212,74.50447,IN,428720,13,0.159848745,0.237812097,1186.381908,,,
945,East Jerusalem,31.78336,35.23388,PS,428304,13,0.189101261,0.262624382,5968.820653,,,
946,Luqiao,28.58023,121.37491,CN,427890,18,0.12435926,0.205340385,2818.517707,,,
947,Bryansk,53.25209,34.37167,RU,427236,14,0.194140978,0.311748767,20727.30431,,,
948,Maltepe,40.93567,29.15507,TR,427040,14,0.191069716,0.309167444,4123.67372,,,
949,Azcapotzalco,19.48698,-99.18594,MX,425298,10,0.214910612,0.335311842,154.2698364,,,
950,Xalapa de Enriquez,19.53124,-96.91589,MX,425148,10,0.215937321,0.341462284,556.9079636,,,
951,Barcelona,10.13625,-64.68618,VE,424795,9,0.20906568,0.254623543,2048.500445,,,
952,Chaozhou,23.65396,116.62262,CN,424787,17,0.126737531,0.20247079,4484.870713,,,
953,Ado-Ekiti,7.62329,5.22087,NG,424340,18,0.100765675,0.139523751,904.5672993,,,
954,Bratislava,48.14816,17.10674,SK,423737,15,0.185604045,0.383189839,6997.559529,,,
955,Gaya,24.79686,85.00385,IN,423692,14,0.165098527,0.253548998,2874.446983,,,
956,Udaipur,24.58584,73.71346,IN,422784,13,0.175163235,0.266732381,3424.712651,,,
957,Likasi,-10.98303,26.7384,CD,422414,17,0.106786083,0.132888459,3933.72515,,,
958,Luxor,25.69893,32.6421,EG,422407,13,0.172776814,0.223178803,7915.167551,,,
959,Ibague,4.43889,-75.23222,CO,421685,9,0.217516843,0.275822096,4078.684939,,,
960,Shaoxing,30.00237,120.57864,CN,421283,18,0.128571429,0.213008173,3012.612615,,,
961,Ivanovo,56.99719,40.97139,RU,420839,14,0.186672019,0.273521641,3205.605763,,,
962,Erzurum,39.90861,41.27694,TR,420691,13,0.197732105,0.281579914,4749.141599,,,
963,Akure,7.25256,5.19312,NG,420594,18,0.100762035,0.139344539,850.8867037,,,
964,Asyut,27.18096,31.18368,EG,420585,14,0.169842333,0.218881896,37.86813835,,,
965,Jambi City,-1.6,103.61667,ID,420323,18,0.107784431,0.14984624,13171.97218,,,
966,Al Mansurah,31.03637,31.38069,EG,420195,14,0.181227671,0.2525642,7111.994607,,,
967,Oakland,37.80437,-122.2708,US,419267,13,0.154498223,0.241018885,165.4080153,,,
968,Korba,22.3458,82.69633,IN,419146,14,0.164233577,0.258020751,2631.028849,,,
969,Bokaro,23.78732,85.95622,IN,418533,14,0.159656652,0.244574783,686.7817658,,,
970,San Juan,18.46633,-66.10572,PR,418140,8,0.219844358,0.268981247,5934.761846,,,
971,Kolwezi,-10.71484,25.46674,CD,418000,17,0.106769737,0.132171613,1954.752501,,,
972,Auckland,-36.84853,174.76349,NZ,417910,1,1,1,0,,,
973,Sukkur,27.70516,68.85738,PK,417767,12,0.183806575,0.257725398,18444.61694,,,
974,Mangalore,12.91723,74.85603,IN,417387,14,0.149573795,0.217000965,198.8471336,,,
975,Luohe,33.56394,114.04272,CN,417356,17,0.135253054,0.213906626,4930.981298,,,
976,Sevastopol,44.58883,33.5224,UA,416263,13,0.199556541,0.318679635,31149.36085,,,
977,Shymkent,42.3,69.6,KZ,414032,13,0.181853735,0.225927778,2317.959322,,,
978,Yangquan,37.8575,113.56333,CN,413394,17,0.141172899,0.21314019,42038.73362,,,
979,Magnitogorsk,53.41861,59.04722,RU,413351,13,0.188309935,0.232469772,38125.79274,,,
980,Jhansi,25.45887,78.57994,IN,412927,13,0.173950994,0.271754569,9586.500358,,,
981,Florianopolis,-27.59667,-48.54917,BR,412724,15,0.128190584,0.246479794,101.3538252,,,
982,Wandsbek,53.58334,10.08305,DE,411422,15,0.177165354,0.376195282,1884.748049,,,
983,Santos,-23.96083,-46.33361,BR,411403,14,0.136013481,0.257979194,113.8704934,,,
984,Maturin,9.74569,-63.18323,VE,410972,9,0.204710145,0.247176921,10770.38056,,,
985,Minneapolis,44.97997,-93.26384,US,410939,12,0.195874502,0.335660907,1925.751077,,,
986,Ardabil,38.2498,48.2933,IR,410753,12,0.197061732,0.264556238,19018.27042,,,
987,Nagasaki,32.75,129.88333,JP,410204,19,0.118125238,0.197816879,2824.587923,,,
988,Chaoyang,41.57028,120.45861,CN,410005,18,0.134308959,0.208827099,5757.923766,,,
989,Gaza,31.5,34.46667,PS,410000,13,0.188755835,0.261271762,5534.423943,,,
990,Kursk,51.73733,36.18735,RU,409431,14,0.192559873,0.302871826,5458.450778,,,
991,Al Ain,24.19167,55.76056,AE,408733,11,0.179872349,0.213698648,17674.52756,,,
992,Jeju City,33.50972,126.52194,KR,408364,18,0.125207557,0.206060625,3586.685533,,,
993,Panama,8.9936,-79.51973,PA,408168,8,0.226090436,0.288462916,7882.268326,,,
994,Shiyan,32.56667,110.78333,CN,408055,17,0.135344911,0.212783567,3836.700285,,,
995,Szczecin,53.42894,14.55302,PL,407811,15,0.181924883,0.366827174,2795.387474,,,
996,Bien Hoa,10.94469,106.82432,VN,407208,17,0.125800343,0.177034516,328.593796,,,
997,Villa Nueva,14.52694,-90.5875,GT,406830,9,0.222572385,0.305514468,750.005098,,,
998,Ribeirao das Neves,-19.76694,-44.08667,BR,406802,14,0.138429499,0.256981156,411.9820349,,,
999,Hirakata,34.81352,135.64914,JP,406331,19,0.115046802,0.186030453,194.3418358,,,
1000,Oujda-Angad,34.68139,-1.90858,MA,405253,17,0.14187643,0.24205045,439.6757813,,,
1001,Tanda,30.78847,31.00192,EG,404901,14,0.179872349,0.250057864,6199.303731,,,
1002,Newcastle,-27.75796,29.9318,ZA,404838,19,0.088518037,0.110019107,43.25305196,,,
1003,Xochimilco,19.25465,-99.10356,MX,404458,10,0.214910612,0.335311842,154.2698364,,,
1004,Nellore,14.44992,79.98697,IN,404158,14,0.154092566,0.231058825,804.1831719,,,
1005,Hsinchu,24.80361,120.96861,TW,404109,18,0.123369445,0.196932333,2123.619984,,,
1006,Jixi,45.30109,130.95718,CN,403759,18,0.125455281,0.182629329,5325.414623,,,
1007,Zanzibar,-6.16394,39.19793,TZ,403658,16,0.116351808,0.144880701,21838.79074,,,
1008,Tulsa,36.15398,-95.99277,US,403505,11,0.219972747,0.374775249,3056.294296,,,
1009,Taoyuan City,24.99368,121.29696,TW,402014,18,0.123287671,0.195755511,1406.024935,,,
1010,Tonala,20.62445,-103.23423,MX,401509,10,0.212725904,0.332806925,335.4180658,,,
1011,Kassala,15.45099,36.39998,SD,401477,14,0.147400676,0.177310261,1819.168199,,,
1012,Palma,39.56939,2.65024,ES,401270,16,0.158892875,0.296648471,2669.614109,,,
1013,Kitwe,-12.80243,28.21323,ZM,400914,18,0.100896861,0.127874152,3260.351335,,,
1014,Nasiriyah,31.05799,46.25726,IQ,400249,12,0.190821421,0.247007789,3861.746993,,,
1015,Tver,56.85836,35.90057,RU,400212,14,0.1875,0.287995385,6351.274536,,,
1016,West Jerusalem,31.78199,35.21961,IL,400000,13,0.189088445,0.26244517,5897.130383,,,
1017,Machida,35.54028,139.45083,JP,399969,19,0.111931317,0.174022602,28.19107323,,,
1018,Yangjiang,21.85563,111.96272,CN,399735,17,0.12985804,0.198760868,2637.412665,,,
1019,Khmel'nyts'kyy,49.42161,26.99653,UA,398346,14,0.193534961,0.338390202,10635.22345,,,
1020,Gifu-shi,35.42291,136.76039,JP,397714,19,0.114208523,0.184181885,164.3903257,,,
1021,Tiruppur,11.11541,77.35456,IN,397521,14,0.148112757,0.209706916,41.02685633,,,
1022,Keelung,25.12825,121.7419,TW,397515,18,0.122923734,0.194429346,1374.521078,,,
1023,Al Hoceima,35.25165,-3.93723,MA,395644,17,0.141653128,0.241994127,198.367283,,,
1024,Manchester,53.48095,-2.23743,GB,395515,16,0.160695772,0.320219038,55.50556131,,,
1025,Surrey,49.10635,-122.82509,CA,394976,14,0.139730432,0.203494735,10.49651888,,,
1026,Vila Velha,-20.32972,-40.2925,BR,394930,14,0.133427795,0.2423142,185.3273998,,,
1027,Weifang,36.71,119.10194,CN,394732,18,0.130875317,0.216886171,2461.133701,,,
1028,Fujisawa,35.34926,139.47666,JP,394624,19,0.111931317,0.174022602,28.19107323,,,
1029,Ndola,-12.95867,28.63659,ZM,394518,18,0.100889564,0.127635203,2015.453113,,,
1030,Kollam,8.88113,76.58469,IN,394163,14,0.141912513,0.195619847,4.018910816,,,
1031,Serra,-20.12861,-40.30778,BR,394153,14,0.133443552,0.242756678,210.9211287,,,
1032,Samsun,41.27976,36.3361,TR,394050,13,0.200186554,0.301965373,24486.46103,,,
1033,Tallinn,59.43696,24.75353,EE,394024,14,0.178937917,0.293437761,4400.856419,,,
1034,Bamenda,5.9597,10.14597,CM,393835,17,0.111097838,0.151620699,4942.849586,,,
1035,El Obeid,13.18421,30.21669,SD,393311,15,0.137818613,0.167504435,1979.992984,,,
1036,Bello,6.33732,-75.55795,CO,392939,9,0.213207547,0.272642576,330.7652974,,,
1037,Xinpu,34.59972,119.15944,CN,392444,18,0.130844628,0.218131294,2729.026621,,,
1038,Sandakan,5.8402,118.1179,MY,392288,19,0.103659669,0.154604802,8346.203246,,,
1039,Buraydah,26.32599,43.97497,SA,391336,12,0.187160394,0.233153256,54029.81932,,,
1040,Kandahar,31.61332,65.71013,AF,391190,12,0.190015664,0.248696411,74279.4028,,,
1041,Diadema,-23.68611,-46.62278,BR,390633,14,0.136046232,0.258569164,129.578527,,,
1042,Wichita,37.69224,-97.33754,US,389965,11,0.21336858,0.356784086,1992.706896,,,
1043,New Orleans,29.95465,-90.07507,US,389617,10,0.24098955,0.391116028,4847.900258,,,
1044,Comilla,23.46186,91.18503,BD,389411,14,0.160686517,0.233915825,11859.48362,,,
1045,Samut Prakan,13.59934,100.59675,TH,388920,16,0.133358826,0.19216259,6416.271865,,,
1046,Nampula,-15.11646,39.2666,MZ,388526,17,0.104808415,0.129436711,8833.707944,,,
1047,Arlington,32.73569,-97.10807,US,388125,11,0.218484145,0.365070235,1531.765227,,,
1048,Cleveland,41.4995,-81.69541,US,388072,11,0.214910612,0.41453294,648.5354542,,,
1049,Bissau,11.86357,-15.59767,GW,388028,20,0.083683263,0.100503169,525.9148769,,,
1050,Iloilo,10.69694,122.56444,PH,387681,19,0.106039299,0.161783723,521.5094608,,,
1051,Khamis Mushait,18.3,42.73333,SA,387553,13,0.163597983,0.197252964,78115.35429,,,
1052,Campos dos Goytacazes,-21.75227,-41.33044,BR,387417,14,0.133427795,0.24311066,51.051022,,,
1053,Resistencia,-27.46056,-58.98389,AR,387158,14,0.137469586,0.234456478,1563.611683,,,
1054,Misratah,32.37535,15.09254,LY,386120,15,0.162843635,0.248636601,150.4981305,,,
1055,Maua,-23.66778,-46.46139,BR,386069,14,0.136046232,0.258569164,129.578527,,,
1056,Abomey-Calavi,6.44852,2.35566,BJ,385755,18,0.100500702,0.137444898,2602.368078,,,
1057,Bochum,51.48165,7.21648,DE,385729,16,0.171018757,0.375643723,775.9849681,,,
1058,Sector 3,44.4234,26.16874,RO,385439,14,0.194262638,0.334922887,5103.482162,,,
1059,Toyonaka,34.78244,135.46932,JP,384459,19,0.115051546,0.18609019,191.3038007,,,
1060,Iztacalco,19.39528,-99.09778,MX,384326,10,0.214910612,0.335311842,154.2698364,,,
1061,Betim,-19.96778,-44.19833,BR,384000,14,0.138582291,0.257880861,479.7922367,,,
1062,Fukuyama,34.48333,133.36667,JP,383298,19,0.115056291,0.186269402,198.5624899,,,
1063,N'dalatando,-9.29782,14.91162,AO,383100,18,0.100827581,0.123347355,96.37923907,,,
1064,Delmas 73,18.54472,-72.30278,HT,382920,8,0.230706411,0.294115044,2408.946648,,,
1065,Pasto,1.21361,-77.28111,CO,382236,9,0.214015152,0.268484338,11496.525,,,
1066,Batman,37.88738,41.13221,TR,381990,12,0.199200343,0.281237232,32918.56754,,,
1067,Wellington,-41.28664,174.77557,NZ,381900,1,1,1,0,,,
1068,Las Palmas de Gran Canaria,28.09973,-15.41343,ES,381847,18,0.12078445,0.164285655,1.967352532,,,
1069,Caxias do Sul,-29.16806,-51.17944,BR,381270,15,0.127784688,0.240653835,312.7520978,,,
1070,Nizhniy Tagil,57.91944,59.965,RU,381116,14,0.182496075,0.22539617,79818.59841,,,
1071,Bochum-Hordel,51.50168,7.1756,DE,380000,16,0.171018757,0.375643723,775.9849681,,,
1072,Dezhou,37.45127,116.31046,CN,379555,18,0.130562965,0.211689038,1083.433912,,,
1073,Krugersdorp,-26.08577,27.77515,ZA,378821,19,0.088684043,0.112452116,3184.188012,,,
1074,Panihati,22.69089,88.37404,IN,378705,14,0.161206448,0.240836517,8293.015826,,,
1075,Shibganj,25.00146,89.32266,BD,378701,14,0.160779116,0.237401631,3751.177675,,,
1076,Toyohashi,34.76667,137.38333,JP,378374,19,0.114059115,0.181800079,116.2781001,,,
1077,Zhoukou,33.63333,114.63333,CN,377061,17,0.135207172,0.213112121,1204.113157,,,
1078,Laval,45.56995,-73.692,CA,376845,12,0.186437882,0.342224329,12.34442117,,,
1079,Huancayo,-12.06513,-75.20486,PE,376657,11,0.177868723,0.220601591,8659.306844,,,
1080,Makiyivka,48.04782,37.92576,UA,376610,13,0.200344679,0.304584266,11327.22016,,,
1081,Putian,25.43944,119.01028,CN,376558,17,0.126679985,0.202760942,3143.93788,,,
1082,Kahramanmaras,37.5847,36.92641,TR,376045,13,0.195378151,0.286064273,5414.093478,,,
1083,Minato,34.2152,135.1501,JP,375339,19,0.115032572,0.185612293,174.7294601,,,
1084,Tirana,41.3275,19.81889,AL,374801,14,0.184280053,0.327877128,8067.70927,,,
1085,Sao Jose do Rio Preto,-20.81972,-49.37944,BR,374699,14,0.139920753,0.265689542,760.2986021,,,
1086,Kaunas,54.90272,23.90961,LT,374643,15,0.18226955,0.331284342,6055.402227,,,
1087,Bakersfield,35.37329,-119.01871,US,373640,12,0.167209234,0.255145545,663.3194898,,,
1088,Zhangjiakou Shi Xuanhua Qu,40.61028,115.04472,CN,373422,17,0.139486051,0.20684048,28543.50472,,,
1089,Seremban,2.7297,101.9381,MY,372917,17,0.118330647,0.163214318,5503.33961,,,
1090,Stoke-on-Trent,53.00415,-2.18538,GB,372775,16,0.160973921,0.324036243,27.16268587,,,
1091,Pingxiang,27.61672,113.85353,CN,372123,17,0.130850764,0.215402774,6185.124039,,,
1092,Van,38.49457,43.38323,TR,371713,12,0.200907323,0.279127786,34985.4655,,,
1093,Honolulu,21.30694,-157.85833,US,371657,1,1,1,0,,,
1094,Abadan,30.3392,48.3043,IR,370180,12,0.191541947,0.24161342,1826.023612,,,
1095,Fenghuang,27.93557,109.59961,CN,370000,16,0.136163982,0.214495881,62937.13133,,,
1096,Puerto La Cruz,10.21667,-64.61667,VE,370000,9,0.20906568,0.254623543,2048.500445,,,
1097,Brno,49.19522,16.60796,CZ,369559,15,0.185406699,0.384700674,5410.686602,,,
1098,Mahilyow,53.9168,30.3449,BY,369200,14,0.192972749,0.321024059,26274.43083,,,
1099,Natore,24.41112,88.98673,BD,369138,14,0.160973921,0.239492431,5052.558614,,,
1100,Tampa,27.94752,-82.45843,US,369075,10,0.233230134,0.362487709,1611.967742,,,
1101,Sector 6,44.43579,26.01649,RO,367760,14,0.193763456,0.334363918,4017.071776,,,
1102,Canberra,-35.28346,149.12807,AU,367752,2,0.974358974,0.986842105,29.1885763,,,
1103,Nara-shi,34.68505,135.80485,JP,367353,19,0.115037315,0.18567203,165.9261233,,,
1104,Ahmadnagar,19.09457,74.73843,IN,367140,13,0.167567568,0.251059057,3050.471273,,,
1105,Dhulia,20.9013,74.77737,IN,366980,13,0.169193451,0.258751496,2929.070876,,,
1106,Olinda,-8.00889,-34.85528,BR,366754,13,0.141214696,0.210842417,13.518657,,,
1107,Kenitra,34.26101,-6.5802,MA,366570,17,0.13803681,0.220377112,18.33694154,,,
1108,Bydgoszcz,53.1235,18.00762,PL,366452,15,0.184584849,0.364012765,4518.951492,,,
1109,Kuantan,3.8077,103.326,MY,366229,17,0.118426079,0.163955486,4754.105334,,,
1110,Bologna,44.49381,11.33875,IT,366133,15,0.176103011,0.370839991,2522.091391,,,
1111,San Miguel Xico Viejo,19.27022,-98.93588,MX,365777,10,0.216309342,0.33873367,242.4001029,,,
1112,Cheonan,36.8065,127.1522,KR,365114,18,0.1249888,0.207157229,1945.236441,,,
1113,Petare,10.47226,-66.80155,VE,364684,8,0.211610487,0.266384324,690.8311413,,,
1114,Larkana,27.55898,68.21204,PK,364033,12,0.182747102,0.254001355,11053.21593,,,
1115,Al Qadarif,14.03493,35.38344,SD,363945,14,0.147705013,0.177626442,4227.464382,,,
1116,Christchurch,-43.53333,172.63333,NZ,363926,1,1,1,0,,,
1117,Stavropol',45.0428,41.9734,RU,363064,13,0.199271481,0.288367916,13122.27839,,,
1118,Villahermosa,17.98689,-92.93028,MX,362401,9,0.226862076,0.338679941,5393.284199,,,
1119,Toyota,35.08333,137.15,JP,362383,19,0.114199173,0.183823462,158.8367898,,,
1120,Manukau City,-36.99282,174.87986,NZ,362000,1,1,1,0,,,
1121,Zhaoqing,23.05116,112.45972,CN,361969,17,0.129882221,0.200785958,2203.562282,,,
1122,Atasehir,40.9833,29.1167,TR,361615,14,0.191069716,0.309167444,4123.67372,,,
1123,Bhagalpur,25.24446,86.97183,IN,361548,14,0.161225079,0.245115831,10619.67319,,,
1124,Sheikhupura,31.71306,73.97833,PK,361303,13,0.182043586,0.257254085,6447.027926,,,
1125,Carapicuiba,-23.52272,-46.835,BR,361112,14,0.139179702,0.262394135,220.3275576,,,
1126,Wuppertal,51.27027,7.16755,DE,360797,16,0.171008275,0.375464512,758.6163486,,,
1127,Tamale,9.40079,-0.8393,GH,360579,18,0.100233519,0.133355036,8625.644892,,,
1128,Ulan-Ude,51.82721,107.60627,RU,360278,16,0.147736299,0.18151065,55752.79675,,,
1129,Nagano,36.65,138.18333,JP,360176,19,0.114035805,0.181083233,103.4471913,,,
1130,Bobo-Dioulasso,11.17715,-4.2979,BF,360106,19,0.09175217,0.118761611,907.0422309,,,
1131,Lublin,51.25,22.56667,PL,360044,14,0.18957668,0.35580357,12761.66318,,,
1132,Aurora,39.72943,-104.83192,US,359407,12,0.192537059,0.30700309,2859.628922,,,
1133,Coventry,52.40656,-1.51217,GB,359262,16,0.161327628,0.328399615,34.51560317,,,
1134,Halifax,44.64533,-63.57239,CA,359111,12,0.173765954,0.276936719,262.2172717,,,
1135,Anqing,30.51365,117.04723,CN,358661,17,0.133352452,0.216728379,9643.633399,,,
1136,Taraz,42.9,71.36667,KZ,358153,13,0.181853735,0.225927778,2317.959322,,,
1137,San Jose del Monte,14.81389,121.04528,PH,357828,19,0.110481923,0.170436975,1084.652842,,,
1138,Manizales,5.06889,-75.51738,CO,357814,9,0.214624881,0.272640469,641.4593115,,,
1139,Kwangmyong,37.47722,126.86639,KR,357545,18,0.127246192,0.208796406,2691.841601,,,
1140,Zanjan,36.67642,48.49628,IR,357471,12,0.196230131,0.260924219,18892.29781,,,
1141,Iwaki,37.05,140.88333,JP,357309,20,0.106451982,0.16464282,4.294238302,,,
1142,Bacoor,14.45903,120.92903,PH,356974,19,0.110486298,0.170616186,1201.595645,,,
1143,Asahikawa,43.77063,142.36489,JP,356612,19,0.112622613,0.161108856,196.5234003,,,
1144,Kimhae,35.23417,128.88111,KR,356242,18,0.1249888,0.207515652,13214.46669,,,
1145,Arkhangel'sk,64.5401,40.5433,RU,356051,14,0.174266084,0.239816248,1672.87526,,,
1146,Ambon,-3.69583,128.18333,ID,355596,21,0.088123816,0.114745043,1045.418072,,,
1147,Samarinda,-0.49167,117.14583,ID,355160,19,0.100475367,0.141168381,2627.132902,,,
1148,Benito Juarez,19.3984,-99.15766,MX,355017,10,0.214910612,0.335311842,154.2698364,,,
1149,Bilbao,43.26271,-2.92528,ES,354860,16,0.154092566,0.296997963,531.2541932,,,
1150,Mazatlan,23.2329,-106.4062,MX,354717,11,0.198628933,0.323552848,986.8276614,,,
1151,Santiago del Estero,-27.79511,-64.26149,AR,354692,13,0.148060797,0.223745429,3611.672308,,,
1152,Takatsuki,34.84833,135.61678,JP,354468,19,0.115046802,0.186030453,194.3418358,,,
1153,Thessaloniki,40.64361,22.93086,GR,354290,14,0.185357428,0.316195333,3802.182148,,,
1154,Miguel Hidalgo,19.43411,-99.20024,MX,353534,10,0.214910612,0.335311842,154.2698364,,,
1155,Barinas,8.62261,-70.20749,VE,353442,9,0.212047288,0.269046917,1150.759106,,,
1156,Neiva,2.9273,-75.28189,CO,352855,9,0.222003929,0.28014363,14933.15472,,,
1157,Okazaki,34.95,137.16667,JP,352361,19,0.114189825,0.183465039,152.3046729,,,
1158,Bandar Abbas,27.1865,56.2808,IR,352173,11,0.186459935,0.226730309,67934.89102,,,
1159,Vinnytsya,49.23278,28.48097,UA,352115,14,0.194032965,0.333947594,5680.73785,,,
1160,Ciudad Apodaca,25.78195,-100.18839,MX,352064,10,0.222178529,0.367998666,2336.560038,,,
1161,Anshun,26.25,105.93333,CN,351936,16,0.134932534,0.202562531,3175.645965,,,
1162,Suita,34.76143,135.51567,JP,351630,19,0.115042058,0.185851242,177.3659777,,,
1163,Ixtapaluca,19.31556,-98.88284,MX,351001,10,0.216309342,0.33873367,242.4001029,,,
1164,Wakayama,34.23333,135.16667,JP,351000,19,0.115032572,0.185612293,174.7294601,,,
1165,Anaheim,33.83529,-117.9145,US,350742,12,0.167159763,0.25485056,45.48016918,,,
1166,Hualien City,23.97694,121.60444,TW,350468,18,0.122626582,0.195930467,6857.331375,,,
1167,Lapu-Lapu City,10.31028,123.94944,PH,350467,19,0.10604333,0.161694117,868.8650088,,,
1168,Punasa,22.23507,76.39335,IN,350000,13,0.170913992,0.26516556,2116.470395,,,
1169,Diepsloot,-25.93312,28.01213,ZA,350000,19,0.088689681,0.112691065,3538.764677,,,
1170,Muzaffarnagar,29.47091,77.70332,IN,349706,13,0.178104054,0.261795247,4275.760424,,,
1171,Nuevo Laredo,27.47629,-99.51639,MX,349550,10,0.224696759,0.374385096,2776.061866,,,
1172,Florence,43.77925,11.24626,IT,349296,15,0.17556003,0.36477667,2210.937481,,,
1173,Sanandaj,35.31495,46.99883,IR,349176,12,0.194370907,0.258003072,2881.201331,,,
1174,Latur,18.39721,76.56784,IN,348967,13,0.164514417,0.250200291,1738.476003,,,
1175,Campina Grande,-7.23056,-35.88111,BR,348936,13,0.142227816,0.213178771,42.46425352,,,
1176,Etobicoke,43.65421,-79.56711,CA,347948,11,0.207835203,0.38972468,138.5627385,,,
1177,Camaguey,21.38083,-77.91694,CU,347562,9,0.231036598,0.314720466,2870.939469,,,
1178,London,42.98339,-81.23304,CA,346765,11,0.210820896,0.403485742,429.4114406,,,
1179,Chifeng,42.26833,118.96361,CN,346654,18,0.133941431,0.203540361,2122.688592,,,
1180,Hungnam,39.83167,127.61861,KP,346082,19,0.124077204,0.201560021,3802.744197,,,
1181,Astana,51.1801,71.44598,KZ,345604,13,0.187474802,0.222795611,42905.6204,,,
1182,Sector 2,44.4528,26.13321,RO,345370,14,0.19375,0.334184706,3942.06966,,,
1183,Belgorod,50.61074,36.58015,RU,345289,14,0.192652948,0.302775819,4646.858894,,,
1184,Kosti,13.1629,32.66347,SD,345068,14,0.146264744,0.1779984,21385.57985,,,
1185,Taihecun,45.76347,130.85048,CN,345033,18,0.12543836,0.182091695,3374.926218,,,
