trifacta_rownum,location_name,latitude,longitude,country_code,population,id
23776,Shanghai,31.22222,121.45806,CN,22315474,1
23775,Buenos Aires,-34.61315,-58.37723,AR,13076300,2
23774,Mumbai,19.07283,72.88261,IN,12691836,3
23773,Mexico City,19.42847,-99.12766,MX,12294193,4
23772,Beijing,39.9075,116.39723,CN,11716620,5
23771,Karachi,24.8608,67.0104,PK,11624219,6
23770,Istanbul,41.01384,28.94966,TR,11174257,7
23769,Tianjin,39.14222,117.17667,CN,11090314,8
23768,Guangzhou,23.11667,113.25,CN,11071424,9
23767,Delhi,28.65195,77.23149,IN,10927986,10
23766,Moscow,55.75222,37.61556,RU,10381222,11
23765,Shenzhen,22.54554,114.0683,CN,10358381,12
23764,Dhaka,23.7104,90.40744,BD,10356500,13
23763,Seoul,37.566,126.9784,KR,10349312,14
23762,Sao Paulo,-23.5475,-46.63611,BR,10021295,15
23761,Wuhan,30.58333,114.26667,CN,9785388,16
23760,Lagos,6.45407,3.39467,NG,9000000,17
23759,Jakarta,-6.21462,106.84513,ID,8540121,18
23758,Tokyo,35.6895,139.69171,JP,8336599,19
23757,New York City,40.71427,-74.00597,US,8175133,20
23756,Dongguan,23.01797,113.74866,CN,8000000,21
23755,Taipei,25.04776,121.53185,TW,7871900,22
23754,Kinshasa,-4.32758,15.31357,CD,7785965,23
23753,Lima,-12.04318,-77.02824,PE,7737002,24
23752,Cairo,30.06263,31.24967,EG,7734614,25
23751,Bogota,4.60971,-74.08175,CO,7674366,26
23750,London,51.50853,-0.12574,GB,7556900,27
23749,Chongqing,29.56278,106.55278,CN,7457600,28
23748,Chengdu,30.66667,104.06667,CN,7415590,29
23747,Baghdad,33.34058,44.40088,IQ,7216000,30
23746,Nanjing,32.06167,118.77778,CN,7165292,31
23745,Tehran,35.69439,51.42151,IR,7153309,32
23744,Nanchong,30.79508,106.08473,CN,7150000,33
23743,Hong Kong,22.27832,114.17469,HK,7012738,34
23742,Xi'an,34.25833,108.92861,CN,6501190,35
23741,Lahore,31.558,74.35071,PK,6310888,36
23740,Shenyang,41.79222,123.43278,CN,6255921,37
23739,Hangzhou,30.29365,120.16142,CN,6241971,38
23738,Rio de Janeiro,-22.90278,-43.2075,BR,6023699,39
23737,Harbin,45.75,126.65,CN,5878939,40
23736,Tai'an,36.18528,117.12,CN,5499000,41
23735,Suzhou,31.30408,120.59538,CN,5345961,42
23734,Shantou,23.36814,116.71479,CN,5329024,43
23733,Bangkok,13.75398,100.50144,TH,5104476,44
23732,Bengaluru,12.97194,77.59369,IN,5104047,45
23731,Saint Petersburg,59.93863,30.31413,RU,5028000,46
23730,Santiago,-33.45694,-70.64827,CL,4837295,47
23729,Kolkata,22.56263,88.36304,IN,4631392,48
23728,Sydney,-33.86785,151.20732,AU,4627345,49
23727,Yangon,16.80528,96.15611,MM,4477638,50
23726,Jinan,36.66833,116.99722,CN,4335989,51
23725,Chennai,13.08784,80.27847,IN,4328063,52
23724,Zhengzhou,34.75778,113.64861,CN,4253913,53
23723,Melbourne,-37.814,144.96332,AU,4246375,54
23722,Riyadh,24.68773,46.72185,SA,4205961,55
23721,Changchun,43.88,125.32278,CN,4193073,56
23720,Dalian,38.91222,121.60222,CN,4087733,57
23719,Los Angeles,34.05223,-118.24368,US,3971883,58
23718,Chittagong,22.3384,91.83168,BD,3920222,59
23717,Kunming,25.03889,102.71833,CN,3855346,60
23716,Alexandria,31.21564,29.95527,EG,3811516,61
23715,Ahmedabad,23.02579,72.58727,IN,3719710,62
23714,Qingdao,36.06488,120.38042,CN,3718835,63
23713,Busan,35.10278,129.04028,KR,3678555,64
23712,Abidjan,5.30966,-4.01266,CI,3677115,65
23711,Kano,12.00012,8.51672,NG,3626068,66
23710,Foshan,23.02677,113.13148,CN,3600000,67
23709,Hyderabad,17.38405,78.45636,IN,3597816,68
23708,Puyang,29.45679,119.88872,CN,3590000,69
23707,Yokohama,35.43333,139.65,JP,3574443,70
23706,Ibadan,7.37756,3.90591,NG,3565108,71
23705,Singapore,1.28967,103.85007,SG,3547809,72
23704,Wuxi,31.56887,120.28857,CN,3543719,73
23703,Xiamen,24.47979,118.08187,CN,3531347,74
23702,Ankara,39.91987,32.85427,TR,3517182,75
23701,Tianshui,34.57952,105.74238,CN,3500000,76
23700,Ningbo,29.87819,121.54945,CN,3491597,77
23699,Ho Chi Minh City,10.82302,106.62965,VN,3467331,78
23698,Shiyan,32.6475,110.77806,CN,3460000,79
23697,Cape Town,-33.92584,18.42322,ZA,3433441,80
23696,Taiyuan,37.86944,112.56028,CN,3426519,81
23695,Berlin,52.52437,13.41053,DE,3426354,82
23694,Tangshan,39.63333,118.18333,CN,3372102,83
23693,Hefei,31.86389,117.28083,CN,3310268,84
23692,Madrid,40.4165,-3.70256,ES,3255944,85
23691,Pyongyang,39.03385,125.75432,KP,3222000,86
23690,Casablanca,33.58831,-7.61138,MA,3144909,87
23689,Zibo,36.79056,118.06333,CN,3129228,88
23688,Zhongshan,21.31992,110.5723,CN,3121275,89
23687,Durban,-29.8579,31.0292,ZA,3120282,90
23686,Changsha,28.19874,112.97087,CN,3093980,91
23685,Kabul,34.52813,69.17233,AF,3043532,92
23684,UEruemqi,43.80096,87.60046,CN,3029372,93
23683,Caracas,10.48801,-66.87919,VE,3000000,94
23682,Pune,18.51957,73.85535,IN,2935744,95
23681,Surat,21.19594,72.83023,IN,2894504,96
23680,Jeddah,21.54238,39.19797,SA,2867446,97
23679,Shijiazhuang,38.04139,114.47861,CN,2834942,98
23678,Kanpur,26.46523,80.34975,IN,2823249,99
23677,Kiev,50.45466,30.5238,UA,2797553,100
23676,Luanda,-8.83682,13.23432,AO,2776168,101
23675,Quezon City,14.6488,121.0509,PH,2761720,102
23674,Addis Ababa,9.02497,38.74689,ET,2757729,103
23673,Nairobi,-1.28333,36.81667,KE,2750547,104
23672,Chicago,41.85003,-87.65005,US,2720546,105
23671,Salvador,-12.97111,-38.51083,BR,2711840,106
23670,Jaipur,26.91962,75.78781,IN,2711758,107
23669,Dar es Salaam,-6.82349,39.26951,TZ,2698652,108
23668,Lanzhou,36.05701,103.83987,CN,2628426,109
23667,Incheon,37.45646,126.70515,KR,2628000,110
23666,Yunfu,22.92833,112.03954,CN,2612800,111
23664,Basrah,30.50852,47.7804,IQ,2600000,112
23665,Toronto,43.70011,-79.4163,CA,2600000,113
23663,Navi Mumbai,19.03681,73.01582,IN,2600000,114
23662,Osaka,34.69374,135.50218,JP,2592413,115
23661,Mogadishu,2.03711,45.34375,SO,2587183,116
23660,Daegu,35.87028,128.59111,KR,2566540,117
23659,Faisalabad,31.41667,73.08333,PK,2506595,118
23658,Izmir,38.41273,27.13838,TR,2500603,119
23657,Dakar,14.6937,-17.44406,SN,2476400,120
23656,Lucknow,26.83928,80.92313,IN,2472011,121
23655,Giza,30.00808,31.21093,EG,2443203,122
23654,Fortaleza,-3.71722,-38.54306,BR,2400000,123
23653,Cali,3.43722,-76.5225,CO,2392877,124
23652,Surabaya,-7.24917,112.75083,ID,2374658,125
23651,Belo Horizonte,-19.92083,-43.93778,BR,2373224,126
23650,Nanchang,28.68396,115.85306,CN,2357839,127
23649,Rome,41.89193,12.51133,IT,2318895,128
23648,Mashhad,36.31559,59.56796,IR,2307177,129
23647,Brooklyn,40.6501,-73.94958,US,2300664,130
23646,Houston,29.76328,-95.36327,US,2296224,131
23645,Queens,40.68149,-73.83652,US,2272771,132
23644,Nagpur,21.14631,79.08491,IN,2228018,133
23643,Maracaibo,10.66663,-71.61245,VE,2225000,134
23642,Brasilia,-15.77972,-47.92972,BR,2207718,135
23641,Santo Domingo,18.50012,-69.98857,DO,2201941,136
23640,Nagoya,35.18147,136.90641,JP,2191279,137
23639,Brisbane,-27.46794,153.02809,AU,2189878,138
23638,Havana,23.13302,-82.38304,CU,2163824,139
23637,Paris,48.85341,2.3488,FR,2138551,140
23636,Al Mawsil al Jadidah,36.33271,43.10555,IQ,2065597,141
23635,Johannesburg,-26.20227,28.04363,ZA,2026469,142
23634,Kowloon,22.31667,114.18333,HK,2019533,143
23633,Al Basrah al Qadimah,30.50316,47.81507,IQ,2015483,144
23632,Almaty,43.25667,76.92861,KZ,2000900,145
23631,Medellin,6.25184,-75.56359,CO,1999979,146
23630,Tashkent,41.26465,69.21627,UZ,1978028,147
23629,Algiers,36.73225,3.08746,DZ,1977663,148
23628,Khartoum,15.55177,32.53241,SD,1974647,149
23627,Accra,5.55602,-0.1969,GH,1963264,150
23626,Guayaquil,-2.20584,-79.90795,EC,1952029,151
23625,Ordos,39.6086,109.78157,CN,1940653,152
23624,Sanaa,15.35472,44.20667,YE,1937451,153
23623,Beirut,33.88894,35.49442,LB,1916100,154
23622,Perth,-31.95224,115.8614,AU,1896548,155
23621,Sapporo,43.06667,141.35,JP,1883027,156
23620,Jilin,43.85083,126.56028,CN,1881977,157
23619,Bucharest,44.43225,26.10626,RO,1877155,158
23618,Camayenne,9.535,-13.68778,GN,1871242,159
23617,Indore,22.71792,75.8333,IN,1837041,160
23616,Iztapalapa,19.35529,-99.06224,MX,1820888,161
23615,Ecatepec,19.60492,-99.06064,MX,1806226,162
23614,Conakry,9.53795,-13.67729,GN,1767200,163
23613,Maracay,10.23535,-67.59113,VE,1754256,164
23612,Medan,3.58333,98.66667,ID,1750971,165
23611,Rawalpindi,33.6007,73.0679,PK,1743101,166
23610,Minsk,53.9,27.56667,BY,1742124,167
23609,Budapest,47.49801,19.03991,HU,1741041,168
23608,Mosul,36.335,43.11889,IQ,1739800,169
23607,Hamburg,53.57532,10.01534,DE,1739117,170
23606,Curitiba,-25.42778,-49.27306,BR,1718421,171
23605,Warsaw,52.22977,21.01178,PL,1702139,172
23604,Bandung,-6.92222,107.60694,ID,1699719,173
23603,Soweto,-26.26781,27.85849,ZA,1695047,174
23602,Vienna,48.20849,16.37208,AT,1691468,175
23601,Rabat,34.01325,-6.83255,MA,1655753,176
23600,Guadalajara,20.66682,-103.39182,MX,1640589,177
23599,Barcelona,41.38879,2.15899,ES,1621537,178
23598,Pretoria,-25.74486,28.18783,ZA,1619438,179
23597,Aleppo,36.20124,37.16117,SY,1602264,180
23596,Manila,14.6042,120.9822,PH,1600000,181
23595,Montreal,45.50884,-73.58781,CA,1600000,182
23594,Patna,25.59408,85.13563,IN,1599920,183
23593,Bhopal,23.25469,77.40289,IN,1599914,184
23592,Manaus,-3.10194,-60.025,BR,1598210,185
23591,Xinyang,32.12278,114.06556,CN,1590668,186
23590,Puebla,19.03793,-98.20346,MX,1590256,187
23589,Kaduna,10.52641,7.43879,NG,1582102,188
23588,Phnom Penh,11.56245,104.91601,KH,1573544,189
23587,Damascus,33.5102,36.29128,SY,1569394,190
23586,Philadelphia,39.95233,-75.16379,US,1567442,191
23585,Phoenix,33.44838,-112.07404,US,1563025,192
23584,Isfahan,32.65246,51.67462,IR,1547164,193
23583,Ludhiana,30.91204,75.85379,IN,1545368,194
23582,Harare,-17.82772,31.05337,ZW,1542813,195
23581,Kobe,34.6913,135.183,JP,1528478,196
23580,Bekasi,-6.2349,106.9896,ID,1520119,197
23579,Kaohsiung,22.61626,120.31333,TW,1519711,198
23578,Stockholm,59.33258,18.0649,SE,1515017,199
23577,Ciudad Juarez,31.73333,-106.48333,MX,1512354,200
23576,Manhattan,40.78343,-73.96625,US,1487536,201
23575,Asuncion,-25.30066,-57.63591,PY,1482200,202
23574,Recife,-8.05389,-34.88111,BR,1478098,203
23573,Daejeon,36.32139,127.41972,KR,1475221,204
23572,San Antonio,29.42412,-98.49363,US,1469845,205
23571,Kumasi,6.68848,-1.62443,GH,1468609,206
23570,Kota Bharu,6.13328,102.2386,MY,1459994,207
23569,Kyoto,35.02107,135.75385,JP,1459640,208
23568,Kuala Lumpur,3.1412,101.68653,MY,1453975,209
23567,Karaj,35.83266,50.99155,IR,1448075,210
23566,Kathmandu,27.70169,85.3206,NP,1442271,211
23565,Palembang,-2.91673,104.7458,ID,1441500,212
23564,Multan,30.19679,71.47824,PK,1437230,213
23563,Hanoi,21.0245,105.84117,VN,1431270,214
23562,Kharkiv,49.98081,36.25272,UA,1430885,215
23561,Agra,27.18333,78.01667,IN,1430055,216
23560,Cordoba,-31.4135,-64.18105,AR,1428214,217
23559,Tabriz,38.08,46.2919,IR,1424641,218
23558,Novosibirsk,55.0415,82.9346,RU,1419007,219
23557,Gwangju,35.15472,126.91556,KR,1416938,220
23556,Bursa,40.19559,29.06013,TR,1412701,221
23555,Vadodara,22.29941,73.20812,IN,1409476,222
23554,Belem,-1.45583,-48.50444,BR,1407737,223
23553,Fushun,41.85583,123.92333,CN,1400646,224
23552,Quito,-0.22985,-78.52495,EC,1399814,225
23551,San Diego,32.71533,-117.15726,US,1394928,226
23550,Fukuoka,33.6,130.41667,JP,1392289,227
23549,Antananarivo,-18.91368,47.53613,MG,1391433,228
23548,Luoyang,34.68361,112.45361,CN,1390581,229
23547,Hyderabad,25.39242,68.37366,PK,1386330,230
23546,The Bronx,40.84985,-73.86641,US,1385108,231
23545,Valencia,10.16202,-68.00765,VE,1385083,232
23544,Gujranwala,32.15567,74.18705,PK,1384471,233
23543,Barranquilla,10.96854,-74.78132,CO,1380425,234
23542,Guankou,28.15861,113.62709,CN,1380000,235
23541,Tijuana,32.5027,-117.00371,MX,1376457,236
23540,Lubumbashi,-11.66089,27.47938,CD,1373770,237
23539,Porto Alegre,-30.03306,-51.23,BR,1372741,238
23538,Tangerang,-6.17806,106.63,ID,1372124,239
23537,Santa Cruz de la Sierra,-17.78629,-63.18117,BO,1364389,240
23536,Handan,36.60056,114.46778,CN,1358318,241
23535,Kampala,0.31628,32.58219,UG,1353189,242
23534,Yekaterinburg,56.8519,60.6122,RU,1349772,243
23533,Khulna,22.80979,89.56439,BD,1342339,244
23532,Douala,4.04827,9.70428,CM,1338082,245
23531,Gorakhpur,29.44768,75.67206,IN,1324570,246
23530,Mecca,21.42664,39.82563,SA,1323624,247
23529,Makassar,-5.14861,119.43194,ID,1321717,248
23528,Kawasaki,35.52056,139.71722,JP,1306785,249
23527,South Tangerang,-6.28862,106.71789,ID,1303569,250
23526,Baotou,40.65222,109.82222,CN,1301768,251
23525,Dallas,32.78306,-96.80667,US,1300092,252
23524,Medina,24.46861,39.61417,SA,1300000,253
23523,Yaounde,3.86667,11.51667,CM,1299369,254
23522,Bamako,12.65,-8,ML,1297281,255
23521,Nashik,19.99727,73.79096,IN,1289497,256
23520,Semarang,-6.99306,110.42083,ID,1288084,257
23519,Brazzaville,-4.26613,15.28318,CG,1284609,258
23518,Pimpri,18.62292,73.80696,IN,1284606,259
23517,Nizhniy Novgorod,56.32867,44.00205,RU,1284164,260
23516,Amman,31.95522,35.94503,JO,1275857,261
23515,Budta,7.20417,124.43972,PH,1273715,262
23514,Belgrade,44.80401,20.46513,RS,1273651,263
23513,Montevideo,-34.90328,-56.18816,UY,1270737,264
23512,Lusaka,-15.40669,28.28713,ZM,1267440,265
23511,Kalyan,19.2437,73.13554,IN,1262255,266
23510,Thane,19.19704,72.96355,IN,1261517,267
23509,Munich,48.13743,11.57549,DE,1260391,268
23508,Ra's Bayrut,33.9,35.48333,LB,1251739,269
23507,Shiraz,29.61031,52.53113,IR,1249942,270
23506,Adana,37.00167,35.32889,TR,1248988,271
23505,Suwon,37.29111,127.00889,KR,1242724,272
23504,Milan,45.46427,9.18951,IT,1236837,273
23503,Port-au-Prince,18.53917,-72.335,HT,1234742,274
23502,Ciudad Nezahualcoyotl,19.40061,-99.01483,MX,1232220,275
23501,Adelaide,-34.92866,138.59863,AU,1225235,276
23500,Meerut,28.98002,77.70636,IN,1223184,277
23499,Nowrangapur,19.23114,82.54826,IN,1220946,278
23498,Faridabad,28.41124,77.31316,IN,1220229,279
23497,Peshawar,34.008,71.57849,PK,1218773,280
23496,Davao,7.07306,125.61278,PH,1212504,281
23495,Mandalay,21.97473,96.08359,MM,1208099,282
23494,Yueyang,29.37455,113.09481,CN,1200000,283
23493,Santiago de los Caballeros,19.4517,-70.69703,DO,1200000,284
23492,Omdurman,15.64453,32.47773,SD,1200000,285
23491,Anshan,41.12361,122.99,CN,1199275,286
23490,Tongshan,34.18045,117.15707,CN,1199193,287
23489,Ghaziabad,28.66535,77.43915,IN,1199191,288
23488,Depok,-6.4,106.81861,ID,1198129,289
23487,Saitama,35.90807,139.65657,JP,1193350,290
23486,Gustavo Adolfo Madero,19.49392,-99.11075,MX,1193161,291
23485,Dombivli,19.21667,73.08333,IN,1193000,292
23484,Maputo,-25.96553,32.58322,MZ,1191613,293
23483,Fuzhou,26.06139,119.30611,CN,1179720,294
23482,Rajkot,22.29161,70.79322,IN,1177362,295
23481,Rosario,-32.94682,-60.63932,AR,1173533,296
23480,Guiyang,26.58333,106.71667,CN,1171633,297
23479,Goiania,-16.67861,-49.25389,BR,1171195,298
23478,Guarulhos,-23.46278,-46.53333,BR,1169577,299
23477,Prague,50.08804,14.42076,CZ,1165581,300
23476,Varanasi,25.31668,83.01041,IN,1164404,301
23475,Copenhagen,55.67594,12.56553,DK,1153615,302
23474,Sofia,42.69751,23.32415,BG,1152556,303
23473,Tripoli,32.87519,13.18746,LY,1150989,304
23472,Port Harcourt,4.77742,7.0134,NG,1148665,305
23471,Hiroshima,34.4,132.45,JP,1143841,306
23470,Lijiang,26.86879,100.22072,CN,1137600,307
23469,Dubai,25.0657,55.17128,AE,1137347,308
23468,Samara,53.20007,50.15,RU,1134730,309
23467,Omsk,54.99244,73.36859,RU,1129281,310
23466,Benin City,6.33815,5.62575,NG,1125058,311
23465,Monterrey,25.67507,-100.31847,MX,1122874,312
23464,Malingao,7.16083,124.475,PH,1121974,313
23463,Baku,40.37767,49.89201,AZ,1116513,314
23462,Leon de los Aldama,21.12908,-101.67374,MX,1114626,315
23461,Maiduguri,11.84692,13.15712,NG,1112449,316
23460,Kazan,55.78874,49.12214,RU,1104738,317
23459,Yerevan,40.18111,44.51361,AM,1093485,318
23458,Amritsar,31.62234,74.87534,IN,1092450,319
23457,Ouagadougou,12.36566,-1.53388,BF,1086505,320
23456,Yono,35.88333,139.63333,JP,1077730,321
23455,Rostov-na-Donu,47.23135,39.72328,RU,1074482,322
23454,Allahabad,25.44478,81.84322,IN,1073438,323
23453,Goyang-si,37.65639,126.835,KR,1073069,324
23452,Gaziantep,37.05944,37.3825,TR,1065975,325
23451,Visakhapatnam,17.68009,83.20161,IN,1063178,326
23450,Sendai,38.26667,140.86667,JP,1063103,327
23449,Chelyabinsk,55.15402,61.42915,RU,1062919,328
23448,Datong,40.09361,113.29139,CN,1052678,329
23447,Tbilisi,41.69411,44.83368,GE,1049498,330
23446,Changshu City,31.64615,120.74221,CN,1047700,331
23445,Taichung,24.1469,120.6839,TW,1040725,332
23444,Teni,10.01531,77.482,IN,1034724,333
23443,Xianyang,34.33778,108.70261,CN,1034081,334
23442,Ufa,54.74306,55.96779,RU,1033338,335
23441,Dnipro,48.4593,35.03865,UA,1032822,336
23440,Seongnam-si,37.43861,127.13778,KR,1031935,337
23439,Campinas,-22.90556,-47.06083,BR,1031554,338
23438,Jabalpur,23.16697,79.95006,IN,1030168,339
23437,Haora,22.57688,88.31857,IN,1027672,340
23436,Huainan,32.62639,116.99694,CN,1027655,341
23435,San Jose,37.33939,-121.89496,US,1026908,342
23434,Donetsk,48.023,37.80224,UA,1024700,343
23433,Dublin,53.33306,-6.24889,IE,1024027,344
23432,Calgary,51.05011,-114.08529,CA,1019942,345
23431,Brussels,50.85045,4.34878,BE,1019022,346
23430,Aurangabad,19.87757,75.34226,IN,1016441,347
23429,Volgograd,48.71939,44.50183,RU,1011417,348
23428,Nova Iguacu,-22.75917,-43.45111,BR,1002118,349
23427,Jieyang,23.5418,116.36581,CN,1001985,350
23426,Odessa,46.47747,30.73262,UA,1001558,351
23425,Shivaji Nagar,18.53017,73.85263,IN,1000000,352
23424,Zhu Cheng City,35.99502,119.40259,CN,1000000,353
23423,Kitakyushu,33.85181,130.85034,JP,997536,354
23422,Solapur,17.67152,75.91044,IN,997281,355
23421,Baoding,38.85111,115.49028,CN,995652,356
23420,Guatemala City,14.64072,-90.51327,GT,994938,357
23419,Benxi,41.28861,123.765,CN,987717,358
23418,Zapopan,20.72356,-103.38479,MX,987516,359
23417,Birmingham,52.48142,-1.89983,GB,984333,360
23416,Perm,58.01046,56.25017,RU,982419,361
23415,Srinagar,34.08565,74.80555,IN,975857,362
23414,Zaria,11.11128,7.7227,NG,975153,363
23413,Managua,12.13282,-86.2504,NI,973087,364
23412,Port Elizabeth,-33.91799,25.57007,ZA,967677,365
23411,Fes,34.03313,-5.00028,MA,964891,366
23410,Koeln,50.93333,6.95,DE,963395,367
23409,Ulsan,35.53722,129.31667,KR,962865,368
23408,Chandigarh,30.73629,76.7884,IN,960787,369
23407,Coimbatore,11.00555,76.96612,IN,959823,370
23406,Naples,40.85216,14.26811,IT,959470,371
23405,Maceio,-9.66583,-35.73528,BR,954991,372
23404,Cartagena,10.39972,-75.51444,CO,952024,373
23403,Changzhou,31.77359,119.95401,CN,949018,374
23402,Sultanah,24.49258,39.58572,SA,946697,375
23401,Monrovia,6.30054,-10.7969,LR,939524,376
23400,Kingston,17.99702,-76.79358,JM,937700,377
23399,Erbil,36.19257,44.01062,IQ,932800,378
23398,Austin,30.26715,-97.74306,US,931830,379
23397,Krasnoyarsk,56.01839,92.86717,RU,927200,380
23396,Nay Pyi Taw,19.745,96.12972,MM,925000,381
23395,Jodhpur,26.26841,73.00594,IN,921476,382
23394,Chiba,35.6,140.11667,JP,919729,383
23393,Sao Luis,-2.52972,-44.30278,BR,917237,384
23392,Madurai,9.91735,78.11962,IN,909908,385
23391,Sale,34.0531,-6.79846,MA,903485,386
23390,Huaibei,33.97444,116.79167,CN,903039,387
23389,Cochabamba,-17.3895,-66.1568,BO,900414,388
23388,Abobo,5.41613,-4.0159,CI,900000,389
23387,Abu Ghurayb,33.30563,44.18477,IQ,900000,390
23386,Bishkek,42.87,74.59,KG,900000,391
23385,Kaifeng,34.7986,114.30742,CN,900000,392
23384,Qom,34.6401,50.8764,IR,900000,393
23383,Guwahati,26.1844,91.7458,IN,899094,394
23382,Aba,5.10658,7.36667,NG,897560,395
23381,Pingdingshan,33.73847,113.30119,CN,889675,396
23380,Gwalior,26.22983,78.17337,IN,882458,397
23379,Qiqihar,47.34088,123.96045,CN,882364,398
23378,Klang,3.03333,101.45,MY,879867,399
23377,Mendoza,-32.89084,-68.82717,AR,876884,400
23376,Konya,37.87135,32.48464,TR,875530,401
23375,Mbuji-Mayi,-6.13603,23.58979,CD,874761,402
23374,Vijayawada,16.50745,80.6466,IN,874587,403
23373,Pikine,14.76457,-17.39071,SN,874062,404
23372,Turin,45.07049,7.68682,IT,870456,405
23371,Mysore,12.29791,76.63925,IN,868313,406
23370,Jacksonville,30.33218,-81.65565,US,868031,407
23369,Wenzhou,27.99942,120.66682,CN,865672,408
23368,San Francisco,37.77493,-122.41942,US,864816,409
23367,Liverpool,53.41058,-2.97794,GB,864122,410
23366,Saratov,51.54056,46.00861,RU,863725,411
23365,Tegucigalpa,14.0818,-87.20681,HN,850848,412
23364,Bucheon-si,37.49889,126.78306,KR,850731,413
23363,Columbus,39.96118,-82.99879,US,850106,414
23362,Voronezh,51.67204,39.1843,RU,848752,415
23361,Ranchi,23.34316,85.3094,IN,846454,416
23360,Naucalpan de Juarez,19.47851,-99.23963,MX,846185,417
23359,Ulan Bator,47.90771,106.88324,MN,844818,418
23358,Takeo,10.99081,104.78498,KH,843931,419
23357,Ahvaz,31.31901,48.6842,IR,841145,420
23356,Arequipa,-16.39889,-71.535,PE,841130,421
23355,Padang,-0.94924,100.35427,ID,840352,422
23354,Hubli,15.34776,75.13378,IN,840214,423
23353,Marrakesh,31.63416,-7.99994,MA,839296,424
23352,Denpasar,-8.65,115.21667,ID,834881,425
23351,Kampung Baru Subang,3.15,101.53333,MY,833571,426
23350,Fort Worth,32.72541,-97.32085,US,833319,427
23349,Indianapolis,39.76838,-86.15804,US,829718,428
23348,Charlotte,35.22709,-80.84313,US,827097,429
23347,Duque de Caxias,-22.78556,-43.31167,BR,818329,430
23346,Jos,9.92849,8.89212,NG,816824,431
23345,Valencia,39.46975,-0.37739,ES,814208,432
23344,Ilorin,8.49664,4.54214,NG,814192,433
23343,Callao,-12.05659,-77.11814,PE,813264,434
23342,La Paz,-16.5,-68.15,BO,812799,435
23341,Ottawa,45.41117,-75.69812,CA,812129,436
23340,Barquisimeto,10.0647,-69.35703,VE,809490,437
23339,Chihuahua,28.63528,-106.08889,MX,809232,438
23338,Nanning,22.81667,108.31667,CN,803788,439
23337,Freetown,8.484,-13.22994,SL,802639,440
23336,Johor Bahru,1.4655,103.7578,MY,802489,441
23335,Jerusalem,31.76904,35.21633,IL,801000,442
23334,Bandar Lampung,-5.42917,105.26111,ID,800348,443
23333,Bogor,-6.59444,106.78917,ID,800000,444
23332,Mombasa,-4.05466,39.66359,KE,799668,445
23331,Cebu City,10.31672,123.89071,PH,798634,446
23330,Muscat,23.58413,58.40778,OM,797000,447
23329,Zaporizhia,47.82289,35.19031,UA,796217,448
23328,Marseille,43.29695,5.38107,FR,794811,449
23327,Zarqa,32.07275,36.08796,JO,792665,450
23326,Cankaya,39.9179,32.86268,TR,792189,451
23325,Pasragad Branch,34.77772,48.47168,IR,787878,452
23324,Boumerdas,36.76639,3.47717,DZ,786499,453
23323,Jalandhar,31.32556,75.57917,IN,785178,454
23322,Thiruvananthapuram,8.4855,76.94924,IN,784153,455
23321,Sakai,34.58333,135.46667,JP,782339,456
23320,Anyang,36.096,114.38278,CN,781129,457
23319,San Miguel de Tucuman,-26.82414,-65.2226,AR,781023,458
23318,Cotonou,6.36536,2.41833,BJ,780000,459
23317,Salem,11.65117,78.15867,IN,778396,460
23316,Tiruchirappalli,10.8155,78.69651,IN,775484,461
23315,Homs,34.72682,36.72339,SY,775404,462
23314,Hohhot,40.81056,111.65222,CN,774477,463
23313,Niamey,13.51366,2.1098,NE,774235,464
23312,Tainan,22.99083,120.21333,TW,771235,465
23311,Shangyu,30.01556,120.87111,CN,770000,466
23310,Lodz,51.75,19.46667,PL,768755,467
23309,Dammam,26.43442,50.10326,SA,768602,468
23308,Xining,36.62554,101.75739,CN,767531,469
23307,Kahriz,34.3838,47.0553,IR,766706,470
23306,Kota,25.18254,75.83907,IN,763088,471
23305,Natal,-5.795,-35.20944,BR,763043,472
23304,Bhubaneshwar,20.27241,85.83385,IN,762243,473
23303,Qinhuangdao,39.93167,119.58833,CN,759718,474
23302,Hengyang,26.88946,112.61888,CN,759602,475
23301,Antalya,36.90812,30.69556,TR,758188,476
23300,Krakow,50.06143,19.93658,PL,755050,477
23299,Aligarh,27.88145,78.07464,IN,753207,478
23298,Da Nang,16.06778,108.22083,VN,752493,479
23297,Pietermaritzburg,-29.61679,30.39278,ZA,750845,480
23296,Lome,6.13748,1.21227,TG,749700,481
23295,Trujillo,-8.11599,-79.02998,PE,747450,482
23294,Malang,-7.9797,112.6304,ID,746716,483
23293,Ciudad Guayana,8.35122,-62.64102,VE,746535,484
23292,Bareilly,28.36678,79.43167,IN,745435,485
23291,Kigali,-1.94995,30.05885,RW,745261,486
23290,Teresina,-5.08917,-42.80194,BR,744512,487
23289,Nangandao,35.19033,113.80151,CN,743601,488
23288,Sao Bernardo do Campo,-23.69389,-46.565,BR,743372,489
23287,Hegang,47.35118,130.30012,CN,743307,490
23286,Riga,56.946,24.10589,LV,742572,491
23285,Amsterdam,52.37403,4.88969,NL,741636,492
23284,Oyo,7.85257,3.93125,NG,736072,493
23283,Quetta,30.18414,67.00141,PK,733675,494
23282,Nottingham,52.9536,-1.15047,GB,729977,495
23281,Campo Grande,-20.44278,-54.64639,BR,729151,496
23280,Ashgabat,37.95,58.38333,TM,727700,497
23279,Alvaro Obregon,19.35867,-99.20329,MX,727034,498
23278,Muzaffarabad,34.37002,73.47082,PK,725000,499
23277,Guadalupe,25.67678,-100.25646,MX,724921,500
23276,Bagcilar,41.03903,28.85671,TR,724270,501
23275,As Sulaymaniyah,35.56496,45.4329,IQ,723170,502
23274,Cucuta,7.89391,-72.50782,CO,721398,503
23273,Moradabad,28.83893,78.77684,IN,721139,504
23272,N'Djamena,12.10672,15.0444,TD,721081,505
23271,Langfang,39.50972,116.69472,CN,720119,506
23270,Zhumadian,32.97944,114.02944,CN,720000,507
23269,Yantai,37.47649,121.44081,CN,719332,508
23268,Lviv,49.83826,24.02324,UA,717803,509
23267,Merida,20.97537,-89.61696,MX,717175,510
23266,Tlalnepantla,19.54005,-99.19538,MX,715767,511
23265,Edmonton,53.55014,-113.46871,CA,712391,512
23264,Jeonju,35.82194,127.14889,KR,711424,513
23263,Zhuzhou,27.83333,113.15,CN,709358,514
23262,Subang Jaya,3.04384,101.58062,MY,708296,515
23261,Bhiwandi,19.30023,73.05881,IN,707035,516
23260,Pekanbaru,0.51667,101.44167,ID,703956,517
23259,Sevilla,37.38283,-5.97317,ES,703206,518
23258,Tol'yatti,53.5303,49.3461,RU,702879,519
23257,Jaboatao,-8.18028,-35.00139,BR,702621,520
23256,Shizuoka,34.98333,138.38333,JP,701561,521
23255,Santo Domingo Oeste,18.5,-70,DO,701269,522
23254,Rajshahi,24.374,88.60114,BD,700133,523
23253,Santo Domingo Este,18.48847,-69.85707,DO,700000,524
23252,City of Balikpapan,-1.24204,116.89419,ID,700000,525
23251,Battagram,34.67719,73.02329,PK,700000,526
23250,Changzhi,35.20889,111.73861,CN,699514,527
23249,Bulawayo,-20.15,28.58333,ZW,699385,528
23248,Zagreb,45.81444,15.97798,HR,698966,529
23247,Agadir,30.42018,-9.59815,MA,698310,530
23246,Sarajevo,43.84864,18.35644,BA,696731,531
23245,La Plata,-34.92145,-57.95453,AR,694167,532
23244,Tunis,36.81897,10.16579,TN,693210,533
23243,Zhangjiakou,40.81,114.87944,CN,692602,534
23242,Zigong,29.34162,104.77689,CN,689961,535
23241,Fuxin,42.01556,121.65889,CN,689050,536
23240,Enugu,6.44132,7.49883,NG,688862,537
23239,Tangier,35.76727,-5.79975,MA,688356,538
23238,Huangshi,30.24706,115.04814,CN,688090,539
23237,Liaoyang,41.27194,123.17306,CN,687890,540
23236,Sheffield,53.38297,-1.4659,GB,685368,541
23235,Seattle,47.60621,-122.33207,US,684451,542
23234,Denver,39.73915,-104.9847,US,682545,543
23233,El Paso,31.75872,-106.48693,US,681124,544
23232,Kumamoto,32.80589,130.69181,JP,680423,545
23231,Raipur,21.23333,81.63333,IN,679995,546
23230,General Santos,6.11278,125.17167,PH,679588,547
23229,Dushanbe,38.53575,68.77905,TJ,679400,548
23228,Osasco,-23.5325,-46.79167,BR,677856,549
23227,San Luis Potosi,22.14982,-100.97916,MX,677704,550
23226,Detroit,42.33143,-83.04575,US,677116,551
23225,Matola,-25.96222,32.45889,MZ,675422,552
23224,Culiacan,24.79032,-107.38782,MX,675000,553
23223,Zaragoza,41.65606,-0.87734,ES,674317,554
23222,Gorakhpur,26.76628,83.36889,IN,674246,555
23221,Xiangtan,27.85,112.9,CN,674189,556
23220,Ipoh,4.5841,101.0829,MY,673318,557
23219,Mississauga,43.5789,-79.6583,CA,668549,558
23218,Boston,42.35843,-71.05977,US,667137,559
23217,Puyang Chengguanzhen,35.70506,115.01409,CN,666322,560
23216,Nantong,32.03028,120.87472,CN,666251,561
23215,Mudanjiang,44.58333,129.6,CN,665915,562
23214,Athens,37.97945,23.71622,GR,664046,563
23213,Santo Andre,-23.66389,-46.53833,BR,662373,564
23212,Nouakchott,18.08581,-15.9785,MR,661400,565
23211,Pointe-Noire,-4.77609,11.86352,CG,659084,566
23210,Aguascalientes,21.88234,-102.28259,MX,658179,567
23209,Memphis,35.14953,-90.04898,US,655770,568
23208,Kryvyi Rih,47.90966,33.38044,UA,652380,569
23207,Acapulco de Juarez,16.86336,-99.8901,MX,652136,570
23206,Joao Pessoa,-7.115,-34.86306,BR,650883,571
23205,Ansan-si,37.32361,126.82194,KR,650728,572
23204,Benghazi,32.11486,20.06859,LY,650629,573
23203,Frankfurt am Main,50.11552,8.68417,DE,650000,574
23202,Krasnodar,45.04484,38.97603,RU,649851,575
23201,Guilin,25.28194,110.28639,CN,649352,576
23200,Palermo,38.13205,13.33561,IT,648260,577
23199,Colombo,6.93194,79.84778,LK,648034,578
23198,Lilongwe,-13.96692,33.78725,MW,646750,579
23197,Oran,35.69906,-0.63588,DZ,645984,580
23196,Diyarbakir,37.91363,40.21721,TR,644763,581
23195,Taguig,14.5243,121.0792,PH,644473,582
23194,New South Memphis,35.08676,-90.05676,US,641608,583
23193,Ulyanovsk,54.32824,48.38657,RU,640680,584
23192,Kotli,33.51836,73.9022,PK,640000,585
23191,Okayama,34.65,133.93333,JP,639652,586
23190,Zhanjiang,21.28145,110.34271,CN,637790,587
23189,Al Ahmadi,29.07694,48.08389,KW,637411,588
23188,Yogyakarta,-7.80139,110.36472,ID,636660,589
23187,North York,43.76681,-79.4163,CA,636000,590
23186,Chisinau,47.00556,28.8575,MD,635994,591
23185,Wroclaw,51.1,17.03333,PL,634893,592
23184,Cheongju-si,36.63722,127.48972,KR,634596,593
23183,Anyang-si,37.3925,126.92694,KR,634367,594
23182,Tebessa,35.40417,8.12417,DZ,634332,595
23181,Zhenjiang,32.21086,119.45508,CN,632552,596
23180,Portland,45.52345,-122.67621,US,632309,597
23179,Winnipeg,49.8844,-97.14704,CA,632063,598
23178,Dandong,40.12917,124.39472,CN,631973,599
23177,Oklahoma City,35.46756,-97.51643,US,631346,600
23176,Izhevsk,56.84976,53.20448,RU,631038,601
23175,Jaboatao dos Guararapes,-8.11278,-35.01472,BR,630008,602
23174,Shaoguan,24.8,113.58333,CN,628749,603
23173,Yancheng,33.3575,120.1573,CN,628441,604
23172,Coyoacan,19.3467,-99.16174,MX,628063,605
23171,Contagem,-19.93167,-44.05361,BR,627123,606
23170,Santiago de Queretaro,20.58806,-100.38806,MX,626495,607
23169,Bhilai,21.20919,81.4285,IN,625138,608
23168,Panshan,41.18806,122.04944,CN,625040,609
23167,Djibouti,11.58901,43.14503,DJ,623891,610
23166,Las Vegas,36.17497,-115.13722,US,623747,611
23165,Baltimore,39.29038,-76.61219,US,621849,612
23164,Saltillo,25.42321,-101.0053,MX,621250,613
23163,Kermanshah,34.31417,47.065,IR,621100,614
23162,Ribeirao Preto,-21.1775,-47.81028,BR,619746,615
23161,Al Hudaydah,14.79781,42.95452,YE,617871,616
23160,Pasig City,14.58691,121.0614,PH,617301,617
23159,Bristol,51.45523,-2.59665,GB,617280,618
23158,Jamshedpur,22.80278,86.18545,IN,616338,619
23157,Haikou,20.04583,110.34167,CN,615835,620
23156,Ta`izz,13.57952,44.02091,YE,615222,621
23155,Sao Jose dos Campos,-23.17944,-45.88694,BR,613764,622
23154,Taizhou,32.49069,119.90812,CN,612356,623
23153,Xingtai,37.06306,114.49417,CN,611739,624
23152,Borivli,19.23496,72.85976,IN,609617,625
23151,Tlalpan,19.29513,-99.16206,MX,607545,626
23150,Yaroslavl,57.62987,39.87368,RU,606730,627
23149,Benoni,-26.18848,28.32078,ZA,605344,628
23148,Hamamatsu,34.7,137.73333,JP,605098,629
23147,Cochin,9.93988,76.26022,IN,604696,630
23146,Jinzhou,41.10778,121.14167,CN,604269,631
23145,Amravati,20.93333,77.75,IN,603837,632
23144,Abu Dhabi,24.46667,54.36667,AE,603492,633
23143,Haiphong,20.86481,106.68345,VN,602695,634
23142,"Washington, D.C.",38.89511,-77.03637,US,601723,635
23141,Islamabad,33.72148,73.04329,PK,601600,636
23140,Kirkuk,35.46806,44.39222,IQ,601433,637
23139,Sangli,16.85438,74.56417,IN,601214,638
23138,Milwaukee,43.0389,-87.90647,US,600155,639
23137,Scarborough,43.77223,-79.25666,CA,600000,640
23136,Vancouver,49.24966,-123.11934,CA,600000,641
23135,Situbondo,-7.70623,114.00976,ID,600000,642
23134,Shuangyashan,46.63611,131.15389,CN,600000,643
23133,Barnaul,53.36056,83.76361,RU,599579,644
23132,Rotterdam,51.9225,4.47917,NL,598199,645
23131,Luancheng,37.87917,114.65167,CN,597130,646
23130,Mexicali,32.62781,-115.45446,MX,597099,647
23129,Hermosillo,29.1026,-110.97732,MX,595811,648
23128,Rasht,37.27611,49.58862,IR,594590,649
23127,Abeokuta,7.15571,3.34509,NG,593100,650
23126,Essen,51.45657,7.01228,DE,593085,651
23125,Kayseri,38.73222,35.48528,TR,592840,652
23124,Morelia,19.70078,-101.18443,MX,592797,653
23123,Glasgow,55.86515,-4.25763,GB,591620,654
23122,Gold Coast,-28.00029,153.43088,AU,591473,655
23121,Yingkou,40.66482,122.22833,CN,591159,656
23120,Abuja,9.05785,7.49508,NG,590400,657
23119,Zhangzhou,24.51333,117.65556,CN,589831,658
23118,Stuttgart,48.78232,9.17702,DE,589793,659
23117,Dortmund,51.51494,7.466,DE,588462,660
23116,Vladivostok,43.10562,131.87353,RU,587022,661
23115,Irkutsk,52.29778,104.29639,RU,586695,662
23114,Blantyre,-15.78499,35.00854,MW,584877,663
23113,New Kingston,18.00747,-76.78319,JM,583958,664
23112,UEskuedar,41.02252,29.02369,TR,582666,665
23111,Genoa,44.40478,8.94439,IT,580223,666
23110,Oslo,59.91273,10.74609,NO,580000,667
23109,Cuttack,20.46497,85.87927,IN,580000,668
23108,Hachioji,35.65583,139.32389,JP,579399,669
23107,Khabarovsk,48.48271,135.08379,RU,579000,670
23106,Khabarovsk Vtoroy,48.43776,135.13329,RU,578303,671
23105,Libreville,0.39241,9.45356,GA,578156,672
23104,Kerman,30.28321,57.07879,IR,577514,673
23103,Chiclayo,-6.77137,-79.84088,PE,577375,674
23102,Orumiyeh,37.55274,45.07605,IR,577307,675
23101,Bahcelievler,41.00231,28.8598,TR,576799,676
23100,Bengbu,32.94083,117.36083,CN,576648,677
23099,Bikaner,28.01762,73.31495,IN,576015,678
23098,Umraniye,41.01643,29.12476,TR,573265,679
23097,Duesseldorf,51.22172,6.77616,DE,573057,680
23096,Banjarmasin,-3.31987,114.59075,ID,572837,681
23095,Goeteborg,57.70716,11.96679,SE,572799,682
23094,Shihezi,44.3023,86.03694,CN,572772,683
23093,Bucaramanga,7.12539,-73.1198,CO,571820,684
23092,South Boston,42.33343,-71.04949,US,571281,685
23091,Kuching,1.55,110.33333,MY,570407,686
23090,Poznan,52.40692,16.92993,PL,570352,687
23089,Veracruz,19.18095,-96.1429,MX,568313,688
23088,Malaga,36.72016,-4.42034,ES,568305,689
23087,Bouake,7.69385,-5.03031,CI,567481,690
23086,Asmara,15.33805,38.93184,ER,563930,691
23085,Sokoto,13.06269,5.24322,NG,563861,692
23084,Uberlandia,-18.91861,-48.27722,BR,563536,693
23083,Onitsha,6.14978,6.78569,NG,561066,694
23082,Honcho,35.70129,139.98648,JP,560743,695
23081,Albuquerque,35.08449,-106.65114,US,559121,696
23080,Hamhung,39.91833,127.53639,KP,559056,697
23079,Sorocaba,-23.50167,-47.45806,BR,558862,698
23078,Helsinki,60.16952,24.93545,FI,558457,699
23077,Warangal,18,79.58333,IN,557802,700
23076,Santiago de Cuba,20.02083,-75.82667,CU,555865,701
23075,Siping,43.16143,124.37785,CN,555609,702
23074,Kagoshima,31.56667,130.55,JP,555352,703
23073,Surakarta,-7.55611,110.83167,ID,555308,704
23072,Huai'an,33.58861,119.01917,CN,555230,705
23071,Bhavnagar,21.76287,72.15331,IN,554978,706
23070,Mar del Plata,-38.00228,-57.55754,AR,553935,707
23069,Bahawalpur,29.4,71.68333,PK,552607,708
23068,Zahedan,29.4963,60.8629,IR,551980,709
23067,Aden,12.77944,45.03667,YE,550602,710
23066,Nanded,19.16023,77.31497,IN,550564,711
23065,Orenburg,51.7727,55.0988,RU,550204,712
23064,Changwon,35.22806,128.68111,KR,550000,713
23063,Pristina,42.67272,21.16688,XK,550000,714
23062,Jiamusi,46.79927,130.31633,CN,549549,715
23061,Antipolo,14.62578,121.12251,PH,549543,716
23060,Neijiang,29.58354,105.06216,CN,546854,717
23059,Bremen,53.07516,8.80777,DE,546501,718
23058,Meknes,33.89352,-5.54727,MA,545705,719
23057,Sharjah,25.33737,55.41206,AE,543733,720
23056,Banqiao,25.01427,121.46719,TW,543342,721
23055,Sargodha,32.08361,72.67111,PK,542603,722
23054,Bangui,4.36122,18.55496,CF,542393,723
23053,Vilnius,54.68916,25.2798,LT,542366,724
23052,Cancun,21.17429,-86.84656,MX,542043,725
23051,Yangzhou,32.39722,119.43583,CN,539715,726
23050,Novokuznetsk,53.7557,87.1099,RU,539616,727
23049,Kisangani,0.51528,25.19099,CD,539158,728
23048,Port Said,31.25654,32.28411,EG,538378,729
23047,Mercin,36.79526,34.61792,TR,537842,730
23046,Warri,5.51737,5.75006,NG,536023,731
23045,Guli,28.88162,120.03308,CN,536000,732
23044,Ebute Ikorodu,6.60086,3.48818,NG,535619,733
23043,Tanggu,39.02111,117.64694,CN,535298,734
23042,Jiangmen,22.58333,113.08333,CN,532419,735
23041,Tucson,32.22174,-110.92648,US,531641,736
23040,Nashville,36.16589,-86.78444,US,530852,737
23039,Ta'if,21.27028,40.41583,SA,530848,738
23038,Beira,-19.84361,34.83889,MZ,530604,739
23037,Guntur,16.29974,80.45729,IN,530577,740
23036,Touba,14.85,-15.88333,SN,529176,741
23035,Quebec,46.81228,-71.21454,CA,528595,742
23034,Hamadan,34.79922,48.51456,IR,528256,743
23033,Cangzhou,38.31667,116.86667,CN,527681,744
23032,San Salvador,13.68935,-89.18718,SV,525990,745
23031,Santa Maria Chimalhuacan,19.42155,-98.95038,MX,525389,746
23030,Torreon,25.54389,-103.41898,MX,524066,747
23029,Dehra Dun,30.32443,78.03392,IN,522081,748
23028,Cuiaba,-15.59611,-56.09667,BR,521934,749
23027,Cuauhtemoc,19.44506,-99.14612,MX,521348,750
23026,Adolfo Lopez Mateos,19.58722,-99.26356,MX,521034,751
23025,Petaling Jaya,3.10726,101.60671,MY,520698,752
23024,Macau,22.20056,113.54611,MO,520400,753
23023,Bhayandar,19.30157,72.85107,IN,520301,754
23022,Esenler,41.0435,28.87619,TR,520235,755
23021,Ryazan',54.6269,39.6916,RU,520173,756
23020,Fresno,36.74773,-119.77237,US,520052,757
23019,Hamilton,43.25011,-79.84963,CA,519949,758
23018,Tyumen,57.15222,65.52722,RU,519119,759
23017,Durgapur,23.51583,87.30801,IN,518872,760
23016,Quilmes,-34.72904,-58.26374,AR,518788,761
23015,Ajmer,26.4521,74.63867,IN,517911,762
23014,Lisbon,38.71667,-9.13333,PT,517802,763
23013,Changde,29.04638,111.6783,CN,517780,764
23012,Jiaozuo,35.23972,113.23306,CN,517540,765
23011,Ulhasnagar,19.21667,73.15,IN,516584,766
23010,Kolhapur,16.69563,74.23167,IN,516142,767
23009,Lipetsk,52.60311,39.57076,RU,515655,768
23008,Shiliguri,26.71004,88.42851,IN,515574,769
23007,Hannover,52.37052,9.73322,DE,515140,770
23006,Eskisehir,39.77667,30.52056,TR,514869,771
23005,Azadshahr,34.79049,48.57011,IR,514102,772
23004,Salta,-24.7859,-65.41166,AR,512686,773
23003,Penza,53.20066,45.00464,RU,512602,774
23002,Tembisa,-25.99636,28.2268,ZA,511655,775
23001,Bilimora,20.76957,72.96134,IN,510879,776
23000,Mykolayiv,46.96591,31.9974,UA,510840,777
22999,Aparecida de Goiania,-16.82333,-49.24389,BR,510770,778
22998,Puente Alto,-33.61169,-70.57577,CL,510417,779
22997,Makati City,14.55027,121.03269,PH,510383,780
22996,Naberezhnyye Chelny,55.72545,52.41122,RU,509870,781
22995,Leicester,52.6386,-1.13169,GB,508916,782
22994,Wuhu,31.33728,118.37351,CN,507524,783
22993,Toluca,19.28786,-99.65324,MX,505881,784
22992,Niigata,37.88637,139.00589,JP,505272,785
22991,Karol Bagh,28.65136,77.19072,IN,505241,786
22990,Leipzig,51.33962,12.37129,DE,504971,787
22989,Kalininskiy,59.99675,30.3899,RU,504641,788
22988,Duisburg,51.43247,6.76516,DE,504358,789
22987,Asansol,23.68333,86.98333,IN,504271,790
22986,Arak,34.09174,49.68916,IR,503647,791
22985,Astrakhan,46.34968,48.04076,RU,502533,792
22984,Zhuhai,22.27694,113.56778,CN,501199,793
22983,Pohang,36.02917,129.36481,KR,500000,794
22982,Nuernberg,49.45421,11.07752,DE,499237,795
22981,Shashi,30.30722,112.24472,CN,498780,796
22980,Reynosa,26.08061,-98.28835,MX,498654,797
22979,Makhachkala,42.97638,47.50236,RU,497959,798
22978,Cimahi,-6.87222,107.5425,ID,493698,799
22977,Tlaquepaque,20.64091,-103.29327,MX,493646,800
22976,Wuwei,37.92672,102.63202,CN,493092,801
22975,Jamnagar,22.47292,70.06673,IN,492056,802
22974,Sacramento,38.58157,-121.4944,US,490712,803
22973,Aracaju,-10.91111,-37.07167,BR,490175,804
22972,Port Sudan,19.61745,37.21644,SD,489725,805
22971,Santa Fe de la Vera Cruz,-31.63333,-60.7,AR,489505,806
22970,San Pedro Sula,15.50417,-88.025,HN,489466,807
22969,Suez,29.97371,32.52627,EG,488125,808
22968,Dresden,51.05089,13.73832,DE,486854,809
22967,Tomsk,56.49771,84.97437,RU,485519,810
22966,Masina,-4.38361,15.39139,CD,485167,811
22965,Saharanpur,29.9679,77.54522,IN,484873,812
22964,Gulbarga,17.33583,76.83757,IN,483615,813
22963,Bhatpara,22.86643,88.40113,IN,483129,814
22962,Najaf,32.02594,44.34625,IQ,482576,815
22961,Feira de Santana,-12.26667,-38.96667,BR,481911,816
22960,Shah Alam,3.08507,101.53281,MY,481654,817
22959,Mariupol,47.09514,37.54131,UA,481626,818
22958,Himeji,34.81667,134.7,JP,481493,819
22957,Tuxtla,16.75973,-93.11308,MX,481128,820
22956,Gomel,52.4345,30.9754,BY,480951,821
22955,Okene,7.55122,6.23589,NG,479178,822
22954,Uijeongbu-si,37.7415,127.0474,KR,479141,823
22953,East London,-33.01529,27.91162,ZA,478676,824
22952,Yazd,31.89722,54.3675,IR,477905,825
22951,Hargeysa,9.56,44.065,SO,477876,826
22950,Sialkot,32.49268,74.53134,PK,477396,827
22949,Kemerovo,55.33333,86.08333,RU,477090,828
22948,Yichang,30.71444,111.28472,CN,476725,829
22947,Hwaseong-si,37.20682,126.8169,KR,476297,830
22946,Kansas City,39.09973,-94.57857,US,475378,831
22945,Cuautitlan Izcalli,19.64388,-99.21598,MX,475179,832
22944,Yinchuan,38.46806,106.27306,CN,475101,833
22943,Skopje,41.99646,21.43141,MK,474889,834
22942,Vereeniging,-26.67313,27.92615,ZA,474681,835
22941,The Hague,52.07667,4.29861,NL,474292,836
22940,Long Beach,33.76696,-118.18923,US,474140,837
22939,Mixco,14.63333,-90.60639,GT,473080,838
22938,Lyon,45.74846,4.84671,FR,472317,839
22937,Londrina,-23.31028,-51.16278,BR,471832,840
22936,Mesa,33.42227,-111.82264,US,471825,841
22935,Jiaojiang,28.68028,121.44278,CN,470804,842
22934,Matsudo,35.77995,139.90144,JP,470277,843
22933,Juiz de Fora,-21.76417,-43.35028,BR,470193,844
22932,Nishinomiya-hama,34.71562,135.33199,JP,468925,845
22931,Tula,54.19609,37.61822,RU,468825,846
22930,Staten Island,40.56233,-74.13986,US,468730,847
22929,Kawaguchi,35.80521,139.71072,JP,468565,848
22928,Zunyi,27.68667,106.90722,CN,466292,849
22927,Jiaxing,30.7522,120.75,CN,466101,850
22926,Belford Roxo,-22.76417,-43.39944,BR,466096,851
22925,Jammu,32.73569,74.86911,IN,465567,852
22924,Liaoyuan,42.90361,125.13583,CN,465249,853
22923,Edinburgh,55.95206,-3.19648,GB,464990,854
22922,Atlanta,33.749,-84.38798,US,463878,855
22921,Kananga,-5.89624,22.41659,CD,463546,856
22920,Bloemfontein,-29.12107,26.214,ZA,463064,857
22919,Xiangyang,32.0422,112.14479,CN,462956,858
22918,Gdansk,54.35205,18.64637,PL,461865,859
22917,Calabar,4.95893,8.32695,NG,461796,860
22916,Dadukou,26.5479,101.70539,CN,461513,861
22915,Joinville,-26.30444,-48.84556,BR,461304,862
22914,Hamah,35.13179,36.75783,SY,460602,863
22913,Antwerpen,51.21989,4.40346,BE,459805,864
22912,Kanazawa,36.6,136.61667,JP,458937,865
22911,Karabaglar,38.37396,27.1352,TR,458000,866
22910,Zamboanga,6.91028,122.07389,PH,457623,867
22909,Kirov,58.59665,49.66007,RU,457383,868
22908,Ujjain,23.18239,75.77643,IN,457346,869
22907,Kota Kinabalu,5.9749,116.0724,MY,457326,870
22906,Victoria de Durango,24.02032,-104.65756,MX,457140,871
22905,Colorado Springs,38.83388,-104.82136,US,456568,872
22904,Niteroi,-22.88333,-43.10361,BR,456456,873
22903,Hengshui,37.73222,115.70111,CN,456356,874
22902,Tabuk,28.3998,36.57151,SA,455450,875
22901,Pontianak,-0.03194,109.325,ID,455173,876
22900,Leeds,53.79648,-1.54785,GB,455123,877
22899,Namp'o,38.7375,125.40778,KP,455000,878
22898,Bacolod City,10.66667,122.95,PH,454898,879
22897,Sao Joao de Meriti,-22.80389,-43.37222,BR,454849,880
22896,Mansilingan,10.63111,122.97889,PH,454150,881
22895,Virginia Beach,36.85293,-75.97799,US,452745,882
22894,Ramgundam,18.80084,79.45206,IN,452261,883
22893,Luhansk,48.56705,39.31706,UA,452000,884
22892,Manado,1.48218,124.84892,ID,451893,885
22891,Karagandy,49.83333,73.1658,KZ,451800,886
22890,Raleigh,35.7721,-78.63861,US,451066,887
22889,Jining,35.405,116.58139,CN,450327,888
22888,Constantine,36.365,6.61472,DZ,450097,889
22887,Juba,4.85165,31.58247,SS,450000,890
22886,Muratpasa,36.89157,30.76498,TR,450000,891
22885,Wenshan City,23.36306,104.25047,CN,450000,892
22884,Utsunomiya,36.56667,139.88333,JP,449865,893
22883,Heroica Matamoros,25.87972,-97.50417,MX,449815,894
22882,Sanliurfa,37.16708,38.79392,TR,449549,895
22881,Chengde,40.9519,117.95883,CN,449325,896
22880,Jiangguanchi,34.12821,113.80681,CN,449258,897
22879,Oita,33.23333,131.6,JP,448907,898
22878,Venustiano Carranza,19.44361,-99.10499,MX,447459,899
22877,Cardiff,51.48,-3.18,GB,447287,900
22876,San Juan,-31.5375,-68.53639,AR,447048,901
22875,Cheboksary,56.13222,47.25194,RU,446781,902
22874,Boksburg,-26.21197,28.25958,ZA,445168,903
22873,Cagayan de Oro,8.48222,124.64722,PH,445103,904
22872,Omaha,41.25626,-95.94043,US,443885,905
22871,Matsuyama,33.83916,132.76574,JP,443322,906
22870,San Nicolas de los Garza,25.74167,-100.30222,MX,443273,907
22869,Amagasaki,34.71667,135.41667,JP,442173,908
22868,Carrefour,18.54114,-72.39922,HT,442156,909
22867,Shyamnagar,22.83333,88.36667,IN,441956,910
22866,Dasmarinas,14.32944,120.93667,PH,441876,911
22865,Malatya,38.35018,38.31667,TR,441805,912
22864,Miami,25.77427,-80.19366,US,441003,913
22863,Nangi,22.50833,88.21528,IN,440894,914
22862,Pereira,4.81333,-75.69611,CO,440118,915
22861,Kozhikode,11.24802,75.7804,IN,439922,916
22860,Mawlamyine,16.49051,97.62825,MM,438861,917
22859,Iquitos,-3.74912,-73.25383,PE,437620,918
22858,Kurashiki,34.58333,133.76667,JP,437581,919
22857,Sultangazi,41.10652,28.86847,TR,436935,920
22856,Garoua,9.30143,13.39771,CM,436899,921
22855,Murcia,37.98704,-1.13004,ES,436870,922
22854,Mwanza,-2.51667,32.9,TZ,436801,923
22853,Uyo,5.05127,7.9335,NG,436606,924
22852,Bei'an,48.26667,126.6,CN,436444,925
22851,Tirunelveli,8.72518,77.68452,IN,435844,926
22850,Kousseri,12.07689,15.03063,CM,435547,927
22849,Malegaon,20.54966,74.53462,IN,435362,928
22848,Kaliningrad,54.70649,20.51095,RU,434954,929
22847,Karbala,32.61603,44.02488,IQ,434450,930
22846,Masan,35.12725,126.83149,KR,434371,931
22845,Ananindeua,-1.36556,-48.37222,BR,433956,932
22844,Balikpapan,-1.26753,116.82887,ID,433866,933
22843,Brampton,43.68341,-79.76633,CA,433806,934
22842,Toulouse,43.60426,1.44367,FR,433055,935
22841,Namangan,40.9983,71.67257,UZ,432456,936
22840,Katsina,12.99082,7.60177,NG,432149,937
22839,Welkom,-27.97742,26.73506,ZA,431944,938
22838,Santa Marta,11.24079,-74.19904,CO,431781,939
22837,Al Mahallah al Kubra,30.97063,31.1669,EG,431052,940
22836,Jalgaon,21.00292,75.56602,IN,429298,941
22835,Yokosuka,35.28361,139.66722,JP,428992,942
22834,Akola,20.70957,76.9981,IN,428857,943
22833,Belgaum,15.85212,74.50447,IN,428720,944
22832,East Jerusalem,31.78336,35.23388,PS,428304,945
22831,Luqiao,28.58023,121.37491,CN,427890,946
22830,Bryansk,53.25209,34.37167,RU,427236,947
22829,Maltepe,40.93567,29.15507,TR,427040,948
22828,Azcapotzalco,19.48698,-99.18594,MX,425298,949
22827,Xalapa de Enriquez,19.53124,-96.91589,MX,425148,950
22826,Barcelona,10.13625,-64.68618,VE,424795,951
22825,Chaozhou,23.65396,116.62262,CN,424787,952
22824,Ado-Ekiti,7.62329,5.22087,NG,424340,953
22823,Bratislava,48.14816,17.10674,SK,423737,954
22822,Gaya,24.79686,85.00385,IN,423692,955
22821,Udaipur,24.58584,73.71346,IN,422784,956
22820,Likasi,-10.98303,26.7384,CD,422414,957
22819,Luxor,25.69893,32.6421,EG,422407,958
22818,Ibague,4.43889,-75.23222,CO,421685,959
22817,Shaoxing,30.00237,120.57864,CN,421283,960
22816,Ivanovo,56.99719,40.97139,RU,420839,961
22815,Erzurum,39.90861,41.27694,TR,420691,962
22814,Akure,7.25256,5.19312,NG,420594,963
22813,Asyut,27.18096,31.18368,EG,420585,964
22812,Jambi City,-1.6,103.61667,ID,420323,965
22811,Al Mansurah,31.03637,31.38069,EG,420195,966
22810,Oakland,37.80437,-122.2708,US,419267,967
22809,Korba,22.3458,82.69633,IN,419146,968
22808,Bokaro,23.78732,85.95622,IN,418533,969
22807,San Juan,18.46633,-66.10572,PR,418140,970
22806,Kolwezi,-10.71484,25.46674,CD,418000,971
22805,Auckland,-36.84853,174.76349,NZ,417910,972
22804,Sukkur,27.70516,68.85738,PK,417767,973
22803,Mangalore,12.91723,74.85603,IN,417387,974
22802,Luohe,33.56394,114.04272,CN,417356,975
22801,Sevastopol,44.58883,33.5224,UA,416263,976
22800,Shymkent,42.3,69.6,KZ,414032,977
22799,Yangquan,37.8575,113.56333,CN,413394,978
22798,Magnitogorsk,53.41861,59.04722,RU,413351,979
22797,Jhansi,25.45887,78.57994,IN,412927,980
22796,Florianopolis,-27.59667,-48.54917,BR,412724,981
22795,Wandsbek,53.58334,10.08305,DE,411422,982
22794,Santos,-23.96083,-46.33361,BR,411403,983
22793,Maturin,9.74569,-63.18323,VE,410972,984
22792,Minneapolis,44.97997,-93.26384,US,410939,985
22791,Ardabil,38.2498,48.2933,IR,410753,986
22790,Nagasaki,32.75,129.88333,JP,410204,987
22789,Chaoyang,41.57028,120.45861,CN,410005,988
22788,Gaza,31.5,34.46667,PS,410000,989
22787,Kursk,51.73733,36.18735,RU,409431,990
22786,Al Ain,24.19167,55.76056,AE,408733,991
22785,Jeju City,33.50972,126.52194,KR,408364,992
22784,Panama,8.9936,-79.51973,PA,408168,993
22783,Shiyan,32.56667,110.78333,CN,408055,994
22782,Szczecin,53.42894,14.55302,PL,407811,995
22781,Bien Hoa,10.94469,106.82432,VN,407208,996
22780,Villa Nueva,14.52694,-90.5875,GT,406830,997
22779,Ribeirao das Neves,-19.76694,-44.08667,BR,406802,998
22778,Hirakata,34.81352,135.64914,JP,406331,999
22777,Oujda-Angad,34.68139,-1.90858,MA,405253,1000
22776,Tanda,30.78847,31.00192,EG,404901,1001
22775,Newcastle,-27.75796,29.9318,ZA,404838,1002
22774,Xochimilco,19.25465,-99.10356,MX,404458,1003
22773,Nellore,14.44992,79.98697,IN,404158,1004
22772,Hsinchu,24.80361,120.96861,TW,404109,1005
22771,Jixi,45.30109,130.95718,CN,403759,1006
22770,Zanzibar,-6.16394,39.19793,TZ,403658,1007
22769,Tulsa,36.15398,-95.99277,US,403505,1008
22768,Taoyuan City,24.99368,121.29696,TW,402014,1009
22767,Tonala,20.62445,-103.23423,MX,401509,1010
22766,Kassala,15.45099,36.39998,SD,401477,1011
22765,Palma,39.56939,2.65024,ES,401270,1012
22764,Kitwe,-12.80243,28.21323,ZM,400914,1013
22763,Nasiriyah,31.05799,46.25726,IQ,400249,1014
22762,Tver,56.85836,35.90057,RU,400212,1015
22761,West Jerusalem,31.78199,35.21961,IL,400000,1016
22760,Machida,35.54028,139.45083,JP,399969,1017
22759,Yangjiang,21.85563,111.96272,CN,399735,1018
22758,Khmel'nyts'kyy,49.42161,26.99653,UA,398346,1019
22757,Gifu-shi,35.42291,136.76039,JP,397714,1020
22756,Tiruppur,11.11541,77.35456,IN,397521,1021
22755,Keelung,25.12825,121.7419,TW,397515,1022
22754,Al Hoceima,35.25165,-3.93723,MA,395644,1023
22753,Manchester,53.48095,-2.23743,GB,395515,1024
22752,Surrey,49.10635,-122.82509,CA,394976,1025
22751,Vila Velha,-20.32972,-40.2925,BR,394930,1026
22750,Weifang,36.71,119.10194,CN,394732,1027
22749,Fujisawa,35.34926,139.47666,JP,394624,1028
22748,Ndola,-12.95867,28.63659,ZM,394518,1029
22747,Kollam,8.88113,76.58469,IN,394163,1030
22746,Serra,-20.12861,-40.30778,BR,394153,1031
22745,Samsun,41.27976,36.3361,TR,394050,1032
22744,Tallinn,59.43696,24.75353,EE,394024,1033
22743,Bamenda,5.9597,10.14597,CM,393835,1034
22742,El Obeid,13.18421,30.21669,SD,393311,1035
22741,Bello,6.33732,-75.55795,CO,392939,1036
22740,Xinpu,34.59972,119.15944,CN,392444,1037
22739,Sandakan,5.8402,118.1179,MY,392288,1038
22738,Buraydah,26.32599,43.97497,SA,391336,1039
22737,Kandahar,31.61332,65.71013,AF,391190,1040
22736,Diadema,-23.68611,-46.62278,BR,390633,1041
22735,Wichita,37.69224,-97.33754,US,389965,1042
22734,New Orleans,29.95465,-90.07507,US,389617,1043
22733,Comilla,23.46186,91.18503,BD,389411,1044
22732,Samut Prakan,13.59934,100.59675,TH,388920,1045
22731,Nampula,-15.11646,39.2666,MZ,388526,1046
22730,Arlington,32.73569,-97.10807,US,388125,1047
22729,Cleveland,41.4995,-81.69541,US,388072,1048
22728,Bissau,11.86357,-15.59767,GW,388028,1049
22727,Iloilo,10.69694,122.56444,PH,387681,1050
22726,Khamis Mushait,18.3,42.73333,SA,387553,1051
22725,Campos dos Goytacazes,-21.75227,-41.33044,BR,387417,1052
22724,Resistencia,-27.46056,-58.98389,AR,387158,1053
22723,Misratah,32.37535,15.09254,LY,386120,1054
22722,Maua,-23.66778,-46.46139,BR,386069,1055
22721,Abomey-Calavi,6.44852,2.35566,BJ,385755,1056
22720,Bochum,51.48165,7.21648,DE,385729,1057
22719,Sector 3,44.4234,26.16874,RO,385439,1058
22718,Toyonaka,34.78244,135.46932,JP,384459,1059
22717,Iztacalco,19.39528,-99.09778,MX,384326,1060
22716,Betim,-19.96778,-44.19833,BR,384000,1061
22715,Fukuyama,34.48333,133.36667,JP,383298,1062
22714,N'dalatando,-9.29782,14.91162,AO,383100,1063
22713,Delmas 73,18.54472,-72.30278,HT,382920,1064
22712,Pasto,1.21361,-77.28111,CO,382236,1065
22711,Batman,37.88738,41.13221,TR,381990,1066
22710,Wellington,-41.28664,174.77557,NZ,381900,1067
22709,Las Palmas de Gran Canaria,28.09973,-15.41343,ES,381847,1068
22708,Caxias do Sul,-29.16806,-51.17944,BR,381270,1069
22707,Nizhniy Tagil,57.91944,59.965,RU,381116,1070
22706,Bochum-Hordel,51.50168,7.1756,DE,380000,1071
22705,Dezhou,37.45127,116.31046,CN,379555,1072
22704,Krugersdorp,-26.08577,27.77515,ZA,378821,1073
22703,Panihati,22.69089,88.37404,IN,378705,1074
22702,Shibganj,25.00146,89.32266,BD,378701,1075
22701,Toyohashi,34.76667,137.38333,JP,378374,1076
22700,Zhoukou,33.63333,114.63333,CN,377061,1077
22699,Laval,45.56995,-73.692,CA,376845,1078
22698,Huancayo,-12.06513,-75.20486,PE,376657,1079
22697,Makiyivka,48.04782,37.92576,UA,376610,1080
22696,Putian,25.43944,119.01028,CN,376558,1081
22695,Kahramanmaras,37.5847,36.92641,TR,376045,1082
22694,Minato,34.2152,135.1501,JP,375339,1083
22693,Tirana,41.3275,19.81889,AL,374801,1084
22692,Sao Jose do Rio Preto,-20.81972,-49.37944,BR,374699,1085
22691,Kaunas,54.90272,23.90961,LT,374643,1086
22690,Bakersfield,35.37329,-119.01871,US,373640,1087
22689,Zhangjiakou Shi Xuanhua Qu,40.61028,115.04472,CN,373422,1088
22688,Seremban,2.7297,101.9381,MY,372917,1089
22687,Stoke-on-Trent,53.00415,-2.18538,GB,372775,1090
22686,Pingxiang,27.61672,113.85353,CN,372123,1091
22685,Van,38.49457,43.38323,TR,371713,1092
22684,Honolulu,21.30694,-157.85833,US,371657,1093
22683,Abadan,30.3392,48.3043,IR,370180,1094
22682,Fenghuang,27.93557,109.59961,CN,370000,1095
22681,Puerto La Cruz,10.21667,-64.61667,VE,370000,1096
22680,Brno,49.19522,16.60796,CZ,369559,1097
22679,Mahilyow,53.9168,30.3449,BY,369200,1098
22678,Natore,24.41112,88.98673,BD,369138,1099
22677,Tampa,27.94752,-82.45843,US,369075,1100
22676,Sector 6,44.43579,26.01649,RO,367760,1101
22675,Canberra,-35.28346,149.12807,AU,367752,1102
22674,Nara-shi,34.68505,135.80485,JP,367353,1103
22673,Ahmadnagar,19.09457,74.73843,IN,367140,1104
22672,Dhulia,20.9013,74.77737,IN,366980,1105
22671,Olinda,-8.00889,-34.85528,BR,366754,1106
22670,Kenitra,34.26101,-6.5802,MA,366570,1107
22669,Bydgoszcz,53.1235,18.00762,PL,366452,1108
22668,Kuantan,3.8077,103.326,MY,366229,1109
22667,Bologna,44.49381,11.33875,IT,366133,1110
22666,San Miguel Xico Viejo,19.27022,-98.93588,MX,365777,1111
22665,Cheonan,36.8065,127.1522,KR,365114,1112
22664,Petare,10.47226,-66.80155,VE,364684,1113
22663,Larkana,27.55898,68.21204,PK,364033,1114
22662,Al Qadarif,14.03493,35.38344,SD,363945,1115
22661,Christchurch,-43.53333,172.63333,NZ,363926,1116
22660,Stavropol',45.0428,41.9734,RU,363064,1117
22659,Villahermosa,17.98689,-92.93028,MX,362401,1118
22658,Toyota,35.08333,137.15,JP,362383,1119
22657,Manukau City,-36.99282,174.87986,NZ,362000,1120
22656,Zhaoqing,23.05116,112.45972,CN,361969,1121
22655,Atasehir,40.9833,29.1167,TR,361615,1122
22654,Bhagalpur,25.24446,86.97183,IN,361548,1123
22653,Sheikhupura,31.71306,73.97833,PK,361303,1124
22652,Carapicuiba,-23.52272,-46.835,BR,361112,1125
22651,Wuppertal,51.27027,7.16755,DE,360797,1126
22650,Tamale,9.40079,-0.8393,GH,360579,1127
22649,Ulan-Ude,51.82721,107.60627,RU,360278,1128
22648,Nagano,36.65,138.18333,JP,360176,1129
22647,Bobo-Dioulasso,11.17715,-4.2979,BF,360106,1130
22646,Lublin,51.25,22.56667,PL,360044,1131
22645,Aurora,39.72943,-104.83192,US,359407,1132
22644,Coventry,52.40656,-1.51217,GB,359262,1133
22643,Halifax,44.64533,-63.57239,CA,359111,1134
22642,Anqing,30.51365,117.04723,CN,358661,1135
22641,Taraz,42.9,71.36667,KZ,358153,1136
22640,San Jose del Monte,14.81389,121.04528,PH,357828,1137
22639,Manizales,5.06889,-75.51738,CO,357814,1138
22638,Kwangmyong,37.47722,126.86639,KR,357545,1139
22637,Zanjan,36.67642,48.49628,IR,357471,1140
22636,Iwaki,37.05,140.88333,JP,357309,1141
22635,Bacoor,14.45903,120.92903,PH,356974,1142
22634,Asahikawa,43.77063,142.36489,JP,356612,1143
22633,Kimhae,35.23417,128.88111,KR,356242,1144
22632,Arkhangel'sk,64.5401,40.5433,RU,356051,1145
22631,Ambon,-3.69583,128.18333,ID,355596,1146
22630,Samarinda,-0.49167,117.14583,ID,355160,1147
22629,Benito Juarez,19.3984,-99.15766,MX,355017,1148
22628,Bilbao,43.26271,-2.92528,ES,354860,1149
22627,Mazatlan,23.2329,-106.4062,MX,354717,1150
22626,Santiago del Estero,-27.79511,-64.26149,AR,354692,1151
22625,Takatsuki,34.84833,135.61678,JP,354468,1152
22624,Thessaloniki,40.64361,22.93086,GR,354290,1153
22623,Miguel Hidalgo,19.43411,-99.20024,MX,353534,1154
22622,Barinas,8.62261,-70.20749,VE,353442,1155
22621,Neiva,2.9273,-75.28189,CO,352855,1156
22620,Okazaki,34.95,137.16667,JP,352361,1157
22619,Bandar Abbas,27.1865,56.2808,IR,352173,1158
22618,Vinnytsya,49.23278,28.48097,UA,352115,1159
22617,Ciudad Apodaca,25.78195,-100.18839,MX,352064,1160
22616,Anshun,26.25,105.93333,CN,351936,1161
22615,Suita,34.76143,135.51567,JP,351630,1162
22614,Ixtapaluca,19.31556,-98.88284,MX,351001,1163
22613,Wakayama,34.23333,135.16667,JP,351000,1164
22612,Anaheim,33.83529,-117.9145,US,350742,1165
22611,Hualien City,23.97694,121.60444,TW,350468,1166
22610,Lapu-Lapu City,10.31028,123.94944,PH,350467,1167
22609,Punasa,22.23507,76.39335,IN,350000,1168
22608,Diepsloot,-25.93312,28.01213,ZA,350000,1169
22607,Muzaffarnagar,29.47091,77.70332,IN,349706,1170
22606,Nuevo Laredo,27.47629,-99.51639,MX,349550,1171
22605,Florence,43.77925,11.24626,IT,349296,1172
22604,Sanandaj,35.31495,46.99883,IR,349176,1173
22603,Latur,18.39721,76.56784,IN,348967,1174
22602,Campina Grande,-7.23056,-35.88111,BR,348936,1175
22601,Etobicoke,43.65421,-79.56711,CA,347948,1176
22600,Camaguey,21.38083,-77.91694,CU,347562,1177
22599,London,42.98339,-81.23304,CA,346765,1178
22598,Chifeng,42.26833,118.96361,CN,346654,1179
22597,Hungnam,39.83167,127.61861,KP,346082,1180
22596,Astana,51.1801,71.44598,KZ,345604,1181
22595,Sector 2,44.4528,26.13321,RO,345370,1182
22594,Belgorod,50.61074,36.58015,RU,345289,1183
22593,Kosti,13.1629,32.66347,SD,345068,1184
22592,Taihecun,45.76347,130.85048,CN,345033,1185
22591,Doha,25.27932,51.52245,QA,344939,1186
22590,Turmero,10.22856,-67.47421,VE,344700,1187
22589,Tlahuac,19.28689,-99.00507,MX,344106,1188
22588,Cuernavaca,18.9261,-99.23075,MX,343769,1189
22587,Kurgan,55.45,65.33333,RU,343129,1190
22586,Rangpur,25.74664,89.25166,BD,343122,1191
22585,Bhimbar,32.97465,74.07846,PK,342900,1192
22584,Vitebsk,55.1904,30.2049,BY,342700,1193
22583,Soledad,10.91843,-74.76459,CO,342556,1194
22582,Shiqi,22.51682,113.38521,CN,342306,1195
22581,Piracicaba,-22.72528,-47.64917,BR,342209,1196
22580,Zurich,47.36667,8.55,CH,341730,1197
22579,Kukatpalli,17.48486,78.41376,IN,341709,1198
22578,Jhang Sadr,31.26981,72.31687,PK,341210,1199
22577,Arusha,-3.36667,36.68333,TZ,341136,1200
22576,Ambattur,13.09818,80.16152,IN,341049,1201
22575,Koriyama,37.4,140.38333,JP,340560,1202
22574,Plovdiv,42.15,24.75,BG,340494,1203
22573,Chitungwiza,-18.01274,31.07555,ZW,340360,1204
22572,Kashiwa,35.86224,139.97732,JP,340221,1205
22571,Latakia,35.53168,35.79011,SY,340181,1206
22570,Aksu,41.18418,80.27921,CN,340020,1207
22569,Irapuato,20.67675,-101.35628,MX,339554,1208
22568,Tokorozawa,35.79916,139.46903,JP,339435,1209
22567,Corrientes,-27.4806,-58.8341,AR,339067,1210
22566,Kaluga,54.5293,36.27542,RU,338978,1211
22565,Macapa,0.03889,-51.06639,BR,338936,1212
22564,West Raleigh,35.78682,-78.66389,US,338759,1213
22563,Nice,43.70313,7.26608,FR,338620,1214
22562,Kaesong,37.97083,126.55444,KP,338155,1215
22561,Ciudad Bolivar,8.12923,-63.54086,VE,338000,1216
22560,Kawagoe,35.90861,139.48528,JP,337931,1217
22559,Tungi,23.89154,90.40232,BD,337579,1218
22558,Krasnogvargeisky,59.97305,30.47607,RU,337091,1219
22557,Bellary,15.14205,76.92398,IN,336681,1220
22556,Itaquaquecetuba,-23.48611,-46.34833,BR,336679,1221
22555,Simferopol,44.95719,34.11079,UA,336460,1222
22554,Kochi,33.55,133.53333,JP,335570,1223
22553,Sunderland,54.90465,-1.38222,GB,335415,1224
22552,Santa Ana,33.74557,-117.86783,US,335400,1225
22551,Bauru,-22.31472,-49.06056,BR,335024,1226
22550,San Jose,9.93333,-84.08333,CR,335007,1227
22549,Alicante,38.34517,-0.48149,ES,334757,1228
22548,Takamatsu,34.33333,134.05,JP,334223,1229
22547,Tieling,42.29306,123.84139,CN,333907,1230
22546,Qazvin,36.26877,50.0041,IR,333635,1231
22545,Muzaffarpur,26.12259,85.39055,IN,333200,1232
22544,Kamarhati,22.67111,88.37472,IN,332965,1233
22543,Wad Medani,14.40118,33.51989,SD,332714,1234
22542,Jincheng,35.50222,112.83278,CN,332650,1235
22541,Montes Claros,-16.735,-43.86167,BR,332379,1236
22540,Bielefeld,52.03333,8.53333,DE,331906,1237
22539,Bujumbura,-3.3822,29.3644,BI,331700,1238
22538,Mandaue City,10.32361,123.92222,PH,331320,1239
22537,Khorramshahr,30.44079,48.18428,IR,330606,1240
22536,Mathura,27.5035,77.67215,IN,330511,1241
22535,Khorramabad,33.48778,48.35583,IR,329825,1242
22534,Soyapango,13.71024,-89.13989,SV,329708,1243
22533,Patiala,30.33625,76.3922,IN,329224,1244
22532,Wonsan,39.15278,127.44361,KP,329207,1245
22531,Pavlodar,52.28333,76.96667,KZ,329002,1246
22530,Cordoba,37.89155,-4.77275,ES,328428,1247
22529,Chanda,19.95076,79.29523,IN,328351,1248
22528,Canoas,-29.91778,-51.18361,BR,328291,1249
22527,Sochi,43.59917,39.72569,RU,327608,1250
22526,Chongjin,41.79556,129.77583,KP,327000,1251
22525,Yanji,42.9075,129.50778,CN,326957,1252
22524,Bhilwara,25.34707,74.64081,IN,326431,1253
22523,Tetouan,35.57845,-5.36837,MA,326261,1254
22522,Akita,39.71667,140.1,JP,325837,1255
22521,Mogi das Cruzes,-23.52278,-46.18833,BR,325746,1256
22520,Toyama,36.7,137.21667,JP,325532,1257
22519,Piura,-5.19449,-80.63282,PE,325466,1258
22518,Birkenhead,53.39337,-3.01479,GB,325264,1259
22517,Trichur,10.51667,76.21667,IN,325110,1260
22516,Brahmapur,19.31151,84.7929,IN,324726,1261
22515,Sao Vicente,-23.96306,-46.39194,BR,324457,1262
22514,Orel,52.96508,36.07849,RU,324200,1263
22513,Corpus Christi,27.80058,-97.39638,US,324074,1264
22512,Suizhou,31.71111,113.36306,CN,323945,1265
22511,Posadas,-27.36708,-55.89608,AR,323739,1266
22510,Al 'Amarah,31.83561,47.14483,IQ,323302,1267
22509,Volzhskiy,48.78583,44.77973,RU,323293,1268
22508,Riverside,33.95335,-117.39616,US,322424,1269
22507,Villavicencio,4.142,-73.62664,CO,321717,1270
22506,Jundiai,-23.18639,-46.88417,BR,321589,1271
22505,San Miguelito,9.05032,-79.47068,PA,321501,1272
22504,Smolensk,54.7818,32.0401,RU,320991,1273
22503,Ciudad del Este,-25.50972,-54.61111,PY,320782,1274
22502,Pelotas,-31.77194,-52.3425,BR,320674,1275
22501,Kherson,46.65581,32.6178,UA,320477,1276
22500,Shahjanpur,27.88165,79.90918,IN,320434,1277
22499,Akita,39.71667,140.11667,JP,320069,1278
22498,Maroua,10.59095,14.31593,CM,319941,1279
22497,Moron,-34.6509,-58.61956,AR,319934,1280
22496,Anapolis,-16.32667,-48.95278,BR,319587,1281
22495,Pachuca de Soto,20.11697,-98.73329,MX,319581,1282
22494,Shimoga,13.93157,75.56791,IN,319550,1283
22493,Samarqand,39.65417,66.95972,UZ,319366,1284
22492,Murmansk,68.97917,33.09251,RU,319263,1285
22491,Islington,51.53622,-0.10304,GB,319143,1286
22490,Holguin,20.88722,-76.26306,CU,319102,1287
22489,Ust-Kamenogorsk,49.97143,82.60586,KZ,319067,1288
22488,Ad Diwaniyah,31.99289,44.92552,IQ,318801,1289
22487,Shangrao,28.45179,117.94287,CN,318769,1290
22486,Mataram,-8.58333,116.11667,ID,318674,1291
22485,Andijon,40.78206,72.34424,UZ,318419,1292
22484,Reading,51.45625,-0.97113,GB,318014,1293
22483,Iasi,47.16667,27.6,RO,318012,1294
22482,Valladolid,41.65518,-4.72372,ES,317864,1295
22481,Poltava,49.59373,34.54073,UA,317847,1296
22480,New Delhi,28.63576,77.22445,IN,317797,1297
22479,Koshigaya,35.89035,139.78916,JP,317437,1298
22478,Vladikavkaz,43.03667,44.66778,RU,317370,1299
22477,Hrodna,53.6884,23.8258,BY,317365,1300
22476,Katowice,50.25841,19.02754,PL,317316,1301
22475,Rohtak,28.89447,76.58917,IN,317245,1302
22474,Baicheng,45.60746,122.82076,CN,316970,1303
22473,Chimbote,-9.08528,-78.57833,PE,316966,1304
22472,Cluj-Napoca,46.76667,23.6,RO,316748,1305
22471,Calamba,14.21167,121.16528,PH,316612,1306
22470,Bauchi,10.31032,9.84388,NG,316149,1307
22469,Cherepovets,59.13333,37.9,RU,315738,1308
22468,St. Louis,38.62727,-90.19789,US,315685,1309
22467,Armenia,4.53389,-75.68111,CO,315328,1310
22466,Al Kut,32.5128,45.81817,IQ,315162,1311
22465,Timisoara,45.75372,21.22571,RO,315053,1312
22464,Vologda,59.2239,39.88398,RU,314900,1313
22463,Sisli,41.06046,28.98717,TR,314684,1314
22462,Lexington-Fayette,38.0498,-84.45855,US,314488,1315
22461,Kingston upon Hull,53.7446,-0.33525,GB,314018,1316
22460,Soacha,4.57937,-74.21682,CO,313945,1317
22459,Coacalco,19.62923,-99.10689,MX,313405,1318
22458,Preston,53.76282,-2.70452,GB,313332,1319
22457,Ganja,40.68278,46.36056,AZ,313300,1320
22456,Lianshan,40.76432,120.85327,CN,313247,1321
22455,Denizli,37.77417,29.0875,TR,313238,1322
22454,Ikeja,6.59651,3.34205,NG,313196,1323
22453,Bonn,50.73438,7.09549,DE,313125,1324
22452,Ostrava,49.83465,18.28204,CZ,313088,1325
22451,Varna,43.21667,27.91667,BG,312770,1326
22450,Vitoria,-20.31944,-40.33778,BR,312656,1327
22449,Wusong,30.95,117.78333,CN,312588,1328
22448,Iligan City,8.25,124.4,PH,312323,1329
22447,Cusco,-13.52264,-71.96734,PE,312140,1330
22446,Maringa,-23.42528,-51.93861,BR,311724,1331
22445,Miyazaki,31.91667,131.41667,JP,311203,1332
22444,Percut,3.6253,98.864,ID,311063,1333
22443,Pucallpa,-8.37915,-74.55387,PE,310750,1334
22442,Jingdezhen,29.2947,117.20789,CN,310565,1335
22441,Guaruja,-23.99306,-46.25639,BR,310424,1336
22440,Sariwon,38.50722,125.75583,KP,310100,1337
22439,Vladimir,56.13655,40.39658,RU,310024,1338
22438,Antofagasta,-23.65236,-70.3954,CL,309832,1339
22437,Botshabelo,-29.26737,26.72595,ZA,309714,1340
22436,Bengkulu,-3.80044,102.26554,ID,309712,1341
22435,Butuan,8.94917,125.54361,PH,309709,1342
22434,Tampico,22.27817,-97.86772,MX,309003,1343
22433,Chita,52.03171,113.50087,RU,308500,1344
22432,Newcastle,-32.92715,151.77647,AU,308308,1345
22431,Valledupar,10.46314,-73.25322,CO,308237,1346
22430,Ciudad General Escobedo,25.79698,-100.31791,MX,308206,1347
22429,Biskra,34.85038,5.72805,DZ,307987,1348
22428,Mannheim,49.4891,8.46694,DE,307960,1349
22427,Chernihiv,51.50551,31.28487,UA,307684,1350
22426,Irbid,32.55556,35.85,JO,307480,1351
22425,Tumkur,13.34136,77.1022,IN,307359,1352
22424,Chinju,35.19278,128.08472,KR,307242,1353
22423,Newport,51.58774,-2.99835,GB,306844,1354
22422,Tawau,4.24482,117.89115,MY,306462,1355
22421,Shengli,37.46271,118.49165,CN,306450,1356
22420,Firozabad,27.15092,78.39781,IN,306409,1357
22419,Al Fayyum,29.30995,30.8418,EG,306393,1358
22418,Porto Velho,-8.76194,-63.90389,BR,306180,1359
22417,Celaya,20.52353,-100.8157,MX,305901,1360
22416,San Salvador de Jujuy,-24.19457,-65.29712,AR,305891,1361
22415,Brakpan,-26.23656,28.36938,ZA,305692,1362
22414,Stockton,37.9577,-121.29078,US,305658,1363
22413,Mandaluyong City,14.5832,121.0409,PH,305576,1364
22412,Nizamabad,18.67154,78.0988,IN,305438,1365
22411,Kulti,23.73166,86.84372,IN,305405,1366
22410,Franca,-20.53861,-47.40083,BR,305041,1367
22409,Rajahmundry,17.00517,81.77784,IN,304804,1368
22408,Pittsburgh,40.44062,-79.99589,US,304391,1369
22407,Craiova,44.31667,23.8,RO,304142,1370
22406,Constanta,44.18073,28.63432,RO,303399,1371
22405,Saransk,54.1838,45.1749,RU,303394,1372
22404,Mazar-e Sharif,36.70904,67.11087,AF,303282,1373
22403,Barddhaman,23.25572,87.85691,IN,301725,1374
22402,Malmoe,55.60587,13.00073,SE,301706,1375
22401,Gujrat,32.5742,74.07542,PK,301506,1376
22400,Naha,26.21667,127.68333,JP,300795,1377
22399,Brest,52.09755,23.68775,BY,300715,1378
22398,Mardan,34.19794,72.04965,PK,300424,1379
22397,Surgut,61.25,73.41667,RU,300367,1380
22396,Swansea,51.62079,-3.94323,GB,300352,1381
22395,Winejok,9.01222,27.57081,SS,300000,1382
22394,Batikent,39.96833,32.73083,TR,300000,1383
22393,Kyzylorda,44.85278,65.50917,KZ,300000,1384
22392,Kyzyl-Orda,44.8479,65.49989,KZ,300000,1385
22391,Malir Cantonment,24.94343,67.20591,PK,300000,1386
22390,Binan,14.34267,121.08071,PH,300000,1387
22389,George Town,5.41123,100.33543,MY,300000,1388
22388,Mandu,22.36667,75.38333,IN,300000,1389
22387,Merida,8.58972,-71.15611,VE,300000,1390
22386,Yangshuo,24.78081,110.48967,CN,300000,1391
22385,Angeles City,15.15,120.58333,PH,299391,1392
22384,Bradford,53.79391,-1.75206,GB,299310,1393
22383,Santol,15.16222,120.5675,PH,298976,1394
22382,Anchorage,61.21806,-149.90028,US,298695,1395
22381,Kasugai,35.24762,136.97229,JP,298589,1396
22380,Jember,-8.17211,113.69953,ID,298585,1397
22379,Aomorishi,40.81667,140.73333,JP,298394,1398
22378,Otsu,35,135.86667,JP,298164,1399
22377,Barasat,22.72154,88.48198,IN,298127,1400
22376,Elazig,38.67431,39.22321,TR,298004,1401
22375,Okanagan,50.36386,-119.34997,CA,297601,1402
22374,Cherkasy,49.42854,32.06207,UA,297568,1403
22373,Vigo,42.23282,-8.72264,ES,297332,1404
22372,Tampico,22.25528,-97.86861,MX,297284,1405
22371,Akashi,34.63333,134.98333,JP,297279,1406
22370,Bali,22.64859,88.34115,IN,296973,1407
22369,Cincinnati,39.12711,-84.51439,US,296943,1408
22368,Hisar,29.15394,75.72294,IN,296436,1409
22367,Rampur,28.81014,79.02699,IN,296418,1410
22366,Yokkaichi,34.96667,136.61667,JP,295841,1411
22365,Yeosu,34.76278,127.66528,KR,295538,1412
22364,Southend-on-Sea,51.53782,0.71433,GB,295310,1413
22363,Morioka,39.7,141.15,JP,295172,1414
22362,Vina del Mar,-33.02457,-71.55183,CL,294551,1415
22361,Sumy,50.9216,34.80029,UA,294456,1416
22360,Fukushima,37.75,140.46667,JP,294237,1417
22359,Galati,45.45,28.05,RO,294087,1418
22358,Blumenau,-26.91944,-49.06611,BR,293949,1419
22357,Noida,28.58,77.33,IN,293908,1420
22356,Greater Noida,28.49615,77.53601,IN,293908,1421
22355,Foz do Iguacu,-25.54778,-54.58806,BR,293523,1422
22354,Al Hufuf,25.36457,49.56532,SA,293179,1423
22353,Kakinada,16.96036,82.23809,IN,292923,1424
22352,Panipat,29.38747,76.96825,IN,292808,1425
22351,Semey,50.42675,80.26669,KZ,292780,1426
22350,Makurdi,7.73375,8.52139,NG,292645,1427
22349,Wollongong,-34.424,150.89345,AU,292190,1428
22348,Ponta Grossa,-25.095,-50.16194,BR,292177,1429
22347,Minna,9.61524,6.54776,NG,291905,1430
22346,Bialystok,53.13333,23.16433,PL,291855,1431
22345,Mbeya,-8.9,33.45,TZ,291649,1432
22344,Mueang Nonthaburi,13.86075,100.51477,TH,291555,1433
22343,Gumi,36.1136,128.336,KR,291006,1434
22342,Tambov,52.73169,41.44326,RU,290933,1435
22341,Catania,37.49223,15.07041,IT,290927,1436
22340,Al Mubarraz,25.41,49.58083,SA,290802,1437
22339,Bafoussam,5.47775,10.41759,CM,290768,1438
22338,Kasur,31.11866,74.45025,PK,290643,1439
22337,Utrecht,52.09083,5.12222,NL,290529,1440
22336,Xiuying,20.00073,110.29359,CN,290000,1441
22335,Paulista,-7.94083,-34.87306,BR,289971,1442
22334,Al Hillah,32.46367,44.41963,IQ,289709,1443
22333,Limeira,-22.56472,-47.40167,BR,289665,1444
22332,Parbhani,19.26855,76.77081,IN,289629,1445
22331,Victoria,48.43294,-123.3693,CA,289625,1446
22330,Beihai,21.48333,109.1,CN,289568,1447
22329,Huizhou,23.11147,114.41523,CN,289201,1448
22328,Zeytinburnu,40.99441,28.90417,TR,288743,1449
22327,Tsuen Wan,22.37066,114.10479,HK,288728,1450
22326,Meads,38.41258,-82.70905,US,288649,1451
22325,Ironville,38.45647,-82.69238,US,288649,1452
22324,Setif,36.19112,5.41373,DZ,288461,1453
22323,Safi,32.29939,-9.23718,MA,288163,1454
22322,Sinuiju,40.10056,124.39806,KP,288112,1455
22321,Sector 4,44.37571,26.12085,RO,287828,1456
22320,Hue,16.4619,107.59546,VN,287217,1457
22319,Darbhanga,26.15216,85.89707,IN,287150,1458
22318,Marienthal,53.56667,10.08333,DE,287101,1459
22317,Adapazari,40.78056,30.40333,TR,286787,1460
22316,Sultanbeyli,40.96072,29.27067,TR,286622,1461
22315,Henderson,36.0397,-114.98194,US,285667,1462
22314,Greensboro,36.07264,-79.79198,US,285342,1463
22313,Viamao,-30.08111,-51.02333,BR,285269,1464
22312,Zagazig,30.58768,31.502,EG,285097,1465
22311,Saint Paul,44.94441,-93.09327,US,285068,1466
22310,Kuala Terengganu,5.3302,103.1408,MY,285065,1467
22309,Ismailia,30.60427,32.27225,EG,284813,1468
22308,Alto Barinas,8.5931,-70.2261,VE,284289,1469
22307,Dihok,36.86709,42.98845,IQ,284000,1470
22306,Karlsruhe,49.00937,8.40444,DE,283799,1471
22305,Port Moresby,-9.44314,147.17972,PG,283733,1472
22304,Plano,33.01984,-96.69889,US,283558,1473
22303,Ichihara,35.51667,140.08333,JP,283531,1474
22302,Iksan,35.94389,126.95444,KR,283501,1475
22301,Nha Trang,12.24507,109.19432,VN,283441,1476
22300,Suzano,-23.5425,-46.31083,BR,283314,1477
22299,Alwar,27.56246,76.625,IN,283228,1478
22298,Cainta,14.5786,121.1222,PH,283172,1479
22297,Petionville,18.5125,-72.28528,HT,283052,1480
22296,Maebashi,36.4,139.08333,JP,282711,1481
22295,Bilaspur,22.08005,82.15543,IN,282705,1482
22294,Logan City,-27.63917,153.10944,AU,282673,1483
22293,Valparaiso,-33.03932,-71.62725,CL,282448,1484
22292,Palu,-0.90833,119.87083,ID,282431,1485
22291,Kupang,-10.17083,123.60694,ID,282396,1486
22290,Zhytomyr,50.26487,28.67669,UA,282192,1487
22289,Newark,40.73566,-74.17237,US,281944,1488
22288,Itaguei,6.18461,-75.59913,CO,281853,1489
22287,Gebze,40.80276,29.43068,TR,281436,1490
22286,Narsingdi,23.92298,90.71768,BD,281080,1491
22285,Batna,35.55597,6.17414,DZ,280798,1492
22284,Tepic,21.50951,-104.89569,MX,280592,1493
22283,Chuzhou,32.32194,118.29778,CN,280582,1494
22282,Merkezefendi,37.80544,29.04236,TR,280341,1495
22281,Ichinomiya,35.3,136.8,JP,280331,1496
22280,Tacna,-18.01465,-70.25362,PE,280098,1497
22279,Hamburg-Nord,53.58935,9.984,DE,280000,1498
22278,Mingora,34.7795,72.36265,PK,279914,1499
22277,Toledo,41.66394,-83.55521,US,279789,1500
22276,Efon-Alaaye,7.65649,4.92235,NG,279319,1501
22275,Yoshkar-Ola,56.63877,47.89078,RU,279100,1502
22274,Taganrog,47.23617,38.89688,RU,279056,1503
22273,Santa Teresa,10.23409,-66.66308,VE,278890,1504
22272,Horlivka,48.33576,38.05325,UA,278550,1505
22271,Windsor,42.30008,-83.01654,CA,278013,1506
22270,Ilesa,7.62789,4.74161,NG,277904,1507
22269,Kostroma,57.76647,40.92686,RU,277656,1508
22268,Gijon,43.53573,-5.66152,ES,277554,1509
22267,Bari,41.11148,16.8554,IT,277387,1510
22266,Lincoln,40.8,-96.66696,US,277348,1511
22265,Khomeyni Shahr,32.6856,51.53609,IR,277334,1512
22264,Sfax,34.74056,10.76028,TN,277278,1513
22263,Nantes,47.21725,-1.55336,FR,277269,1514
22262,Cuenca,-2.90055,-79.00453,EC,276964,1515
22261,Owo,7.1962,5.58681,NG,276574,1516
22260,Bahia Blanca,-38.71959,-62.27243,AR,276546,1517
22259,Sukabumi,-6.91806,106.92667,ID,276414,1518
22258,Brasov,45.64861,25.60613,RO,276088,1519
22257,Komsomolsk-on-Amur,50.55034,137.00995,RU,275908,1520
22256,Hakodate,41.77583,140.73667,JP,275730,1521
22255,Bab Ezzouar,36.72615,3.18291,DZ,275630,1522
22254,Mokolo,10.74244,13.80227,CM,275239,1523
22253,Caucaia,-3.73611,-38.65306,BR,275019,1524
22252,Strasbourg,48.58392,7.74553,FR,274845,1525
22251,Belfast,54.59682,-5.92541,GB,274770,1526
22250,Kashgar,39.47066,75.98951,CN,274717,1527
22249,Ramadi,33.42056,43.30778,IQ,274539,1528
22248,Ichalkaranji,16.69117,74.46054,IN,274383,1529
22247,Ibaraki,34.81641,135.56828,JP,273992,1530
22246,Yao,34.61667,135.6,JP,273213,1531
22245,Herat,34.34817,62.19967,AF,272806,1532
22244,Guantanamo,20.14444,-75.20917,CU,272801,1533
22243,Nal'chik,43.49806,43.61889,RU,272800,1534
22242,Baguio,16.41639,120.59306,PH,272714,1535
22241,Petropolis,-22.505,-43.17861,BR,272691,1536
22240,Ar Rayyan,25.29194,51.42444,QA,272465,1537
22239,Wiesbaden,50.08258,8.24932,DE,272432,1538
22238,Monteria,8.74798,-75.88143,CO,272420,1539
22237,Ljubljana,46.05108,14.50513,SI,272220,1540
22236,Kakogawacho-honmachi,34.76943,134.82905,JP,271634,1541
22235,Sector 5,44.38808,26.07144,RO,271575,1542
22234,Tasikmalaya,-7.3274,108.2207,ID,271143,1543
22233,Bijapur,16.82442,75.71537,IN,271064,1544
22232,Orlando,28.53834,-81.37924,US,270934,1545
22231,Linyi,35.06306,118.34278,CN,270669,1546
22230,Derby,52.92277,-1.47663,GB,270468,1547
22229,San Pedro,14.3595,121.0473,PH,270216,1548
22228,Muenster,51.96236,7.62571,DE,270184,1549
22227,Gelsenkirchen,51.50508,7.09654,DE,270028,1550
22226,Ciudad Victoria,23.74174,-99.14599,MX,269923,1551
22225,Moppo,34.79361,126.38861,KR,268402,1552
22224,Russeifa,32.01778,36.04639,JO,268237,1553
22223,Windhoek,-22.55941,17.08323,NA,268132,1554
22222,Tshikapa,-6.41621,20.79995,CD,267462,1555
22221,Kafr ad Dawwar,31.13379,30.12969,EG,267370,1556
22220,Tokushima,34.06667,134.56667,JP,267345,1557
22219,Haifa,32.81841,34.9885,IL,267300,1558
22218,Sterlitamak,53.62462,55.95015,RU,267231,1559
22217,Ha'il,27.52188,41.69073,SA,267005,1560
22216,Eixample,41.38896,2.16179,ES,266477,1561
22215,Bagerhat,22.65657,89.79123,BD,266388,1562
22214,Chengzhong,30.94454,113.55284,CN,265886,1563
22213,Wuzhou,23.48333,111.31667,CN,265846,1564
22212,Chula Vista,32.64005,-117.0842,US,265757,1565
22211,Hulan Ergi,47.20417,123.63333,CN,265344,1566
22210,Aizawl,23.72894,92.71791,IN,265331,1567
22209,Aachen,50.77664,6.08342,DE,265208,1568
22208,Sumqayit,40.58972,49.66861,AZ,265150,1569
22207,Mantampay,8.16667,124.21667,PH,265032,1570
22206,Petrozavodsk,61.78491,34.34691,RU,265025,1571
22205,El Daein,11.46186,26.12583,SD,264734,1572
22204,Umuahia,5.52491,7.49461,NG,264662,1573
22203,Jersey City,40.72816,-74.07764,US,264290,1574
22202,Mianyang,31.46784,104.68168,CN,264136,1575
22201,Sivas,39.74833,37.01611,TR,264022,1576
22200,Oaxaca,17.06542,-96.72365,MX,262566,1577
22199,Witbank,-25.87133,29.23323,ZA,262491,1578
22198,Aqtobe,50.27969,57.20718,KZ,262457,1579
22197,Parana,-31.73197,-60.5238,AR,262295,1580
22196,Jalna,19.84102,75.88636,IN,262034,1581
22195,Lal Bahadur Nagar,17.34769,78.55757,IN,261987,1582
22194,Moenchengladbach,51.18539,6.44172,DE,261742,1583
22193,Markham,43.86682,-79.2663,CA,261573,1584
22192,Dewas,22.96585,76.05526,IN,261218,1585
22191,Sincelejo,9.30472,-75.39778,CO,261187,1586
22190,Tongliao,43.6125,122.26528,CN,261110,1587
22189,Uberaba,-19.74833,-47.93194,BR,260843,1588
22188,Chandler,33.30616,-111.84125,US,260828,1589
22187,Fort Wayne,41.1306,-85.12886,US,260326,1590
22186,Plymouth,50.37153,-4.14305,GB,260203,1591
22185,Baranagar,22.64132,88.37727,IN,260072,1592
22184,Aral,40.54184,81.26566,CN,260000,1593
22183,Nakuru,-0.28333,36.06667,KE,259903,1594
22182,Can Tho,10.03711,105.78825,VN,259598,1595
22181,Augsburg,48.37154,10.89851,DE,259196,1596
22180,Hiratsuka,35.32785,139.33735,JP,259052,1597
22179,Gajuwaka,17.7,83.21667,IN,258944,1598
22178,Jiujiang,29.70475,116.00206,CN,258807,1599
22177,Jining,41.0275,113.10583,CN,258757,1600
22176,Popayan,2.43823,-76.61316,CO,258653,1601
22175,Najran,17.49326,44.12766,SA,258573,1602
22174,Ciudad Obregon,27.48642,-109.94083,MX,258162,1603
22173,Al Mukalla,14.54248,49.12424,YE,258132,1604
22172,Buffalo,42.88645,-78.87837,US,258071,1605
22171,Luton,51.87967,-0.41748,GB,258018,1606
22170,Pekalongan,-6.8886,109.6753,ID,257945,1607
22169,Cumana,10.45397,-64.18256,VE,257783,1608
22168,Satna,24.57726,80.82719,IN,257778,1609
22167,Rio Branco,-9.97472,-67.81,BR,257642,1610
22166,Durham,35.99403,-78.89862,US,257636,1611
22165,Etawah,26.77615,79.02133,IN,257448,1612
22164,Cascavel,-24.95583,-53.45528,BR,257172,1613
22163,St. Petersburg,27.77086,-82.67927,US,257083,1614
22162,L'Hospitalet de Llobregat,41.35967,2.10028,ES,257038,1615
22161,Ondo,7.09316,4.83528,NG,257005,1616
22160,Chimoio,-19.11639,33.48333,MZ,256936,1617
22159,Irvine,33.66946,-117.82311,US,256927,1618
22158,Espoo,60.2052,24.6522,FI,256760,1619
22157,Latina,40.38897,-3.74569,ES,256644,1620
22156,Bratsk,56.1325,101.61417,RU,256600,1621
22155,Ensenada,31.87149,-116.60071,MX,256565,1622
22154,Tarsus,36.91766,34.89277,TR,256482,1623
22153,Laredo,27.50641,-99.50754,US,255473,1624
22152,Sari,36.56332,53.06009,IR,255396,1625
22151,Durg,21.19147,81.27619,IN,255283,1626
22150,Rivne,50.62308,26.22743,UA,255106,1627
22149,Soledad de Graciano Sanchez,22.18306,-100.94083,MX,255015,1628
22148,Turpan,42.94769,89.17886,CN,254900,1629
22147,Ikot Ekpene,5.18194,7.71481,NG,254806,1630
22146,Heze,35.23929,115.47358,CN,254602,1631
22145,Yamagata,38.23333,140.36667,JP,254538,1632
22144,Santa Catarina,25.67325,-100.45813,MX,254472,1633
22143,Cirebon,-6.7063,108.557,ID,254298,1634
22142,Novo Hamburgo,-29.67833,-51.13056,BR,253841,1635
22141,Cox's Bazar,21.43973,92.00955,BD,253788,1636
22140,Gdynia,54.51889,18.53188,PL,253730,1637
22139,Carabanchel,40.39094,-3.7242,ES,253678,1638
22138,Naihati,22.89396,88.41521,IN,253221,1639
22137,Vitoria da Conquista,-14.86611,-40.83944,BR,253137,1640
22136,Laohekou,32.38583,111.66778,CN,253112,1641
22135,Richards Bay,-28.78301,32.03768,ZA,252968,1642
22134,Talcahuano,-36.72494,-73.11684,CL,252968,1643
22133,Wolverhampton,52.58547,-2.12296,GB,252791,1644
22132,El Fasher,13.62793,25.34936,SD,252609,1645
22131,Thies Nones,14.78333,-16.96667,SN,252320,1646
22130,Dire Dawa,9.59306,41.86611,ET,252279,1647
22129,Floridablanca,7.06222,-73.08644,CO,252267,1648
22128,Suihua,46.63954,126.99508,CN,252245,1649
22127,Barueri,-23.51056,-46.87611,BR,251994,1650
22126,Borujerd,33.8973,48.7516,IR,251958,1651
22125,Eimsbuettel,53.56667,9.98333,DE,251907,1652
22124,Liupanshui,26.59444,104.83333,CN,251900,1653
22123,Qarchak,35.42867,51.57544,IR,251834,1654
22122,Santiago de Surco,-12.13588,-77.00742,PE,251648,1655
22121,Taubate,-23.02639,-45.55528,BR,251641,1656
22120,Nanyang,32.99472,112.53278,CN,251532,1657
22119,San Fernando,15.03425,120.68445,PH,251248,1658
22118,Los Reyes Acaquilpan,19.36357,-98.97707,MX,251168,1659
22117,Morogoro,-6.82102,37.66122,TZ,250902,1660
22116,Governador Valadares,-18.85111,-41.94944,BR,250878,1661
22115,Tirupati,13.63551,79.41989,IN,250821,1662
22114,Banda Aceh,5.54167,95.33333,ID,250757,1663
22113,Wafangdian,39.61833,122.00806,CN,250591,1664
22112,Sonipat,28.99478,77.01937,IN,250521,1665
22111,Santa Clara,22.40694,-79.96472,CU,250512,1666
22110,Iwo,7.63527,4.18156,NG,250443,1667
22109,Libertad,8.94417,125.50194,PH,250353,1668
22108,Gombe,10.28969,11.16729,NG,250258,1669
22107,Altona,53.55,9.93333,DE,250192,1670
22106,Avadi,13.1147,80.10981,IN,250044,1671
22105,Praia Grande,-24.00583,-46.40278,BR,250027,1672
22104,Colonia del Valle,19.38611,-99.16204,MX,250000,1673
22103,Port-de-Paix,19.9389,-72.83257,HT,250000,1674
22102,Tel Aviv,32.08088,34.78057,IL,250000,1675
22101,Singa,13.1483,33.93117,SD,250000,1676
22100,Nis,43.32472,21.90333,RS,250000,1677
22099,San Bernardo,-33.59217,-70.6996,CL,249858,1678
22098,Varzea Grande,-15.64667,-56.1325,BR,249752,1679
22097,Porto,41.14961,-8.61099,PT,249633,1680
22096,Volta Redonda,-22.52306,-44.10417,BR,249580,1681
22095,Kropyvnytskyi,48.5132,32.2597,UA,249454,1682
22094,Santa Maria,-29.68417,-53.80694,BR,249219,1683
22093,Lubbock,33.57786,-101.85517,US,249042,1684
22092,Madison,43.07305,-89.40123,US,248951,1685
22091,Fukui-shi,36.06443,136.22257,JP,248707,1686
22090,Dniprodzerzhyns'k,48.51134,34.6021,UA,248575,1687
22089,Montpellier,43.61092,3.87723,FR,248252,1688
22088,Jimeta,9.27949,12.45819,NG,248148,1689
22087,Czestochowa,50.79646,19.12409,PL,248125,1690
22086,Tiruvottiyur,13.15823,80.30181,IN,248059,1691
22085,Oshawa,43.90012,-78.84957,CA,247989,1692
22084,Palmira,3.53944,-76.30361,CO,247986,1693
22083,Bukhara,39.77472,64.42861,UZ,247644,1694
22082,Gilbert,33.35283,-111.78903,US,247542,1695
22081,Saugor,23.83877,78.73874,IN,247333,1696
22080,Udon Thani,17.41567,102.78589,TH,247231,1697
22079,Chemnitz,50.8357,12.92922,DE,247220,1698
22078,Ica,-14.06777,-75.72861,PE,246844,1699
22077,Orsk,51.20487,58.56685,RU,246836,1700
22076,Vanderbijlpark,-26.71171,27.83795,ZA,246754,1701
22075,San Cristobal,7.76694,-72.225,VE,246583,1702
22074,Mito,36.35,140.45,JP,246538,1703
22073,Norfolk,36.84681,-76.28522,US,246393,1704
22072,Rizhao,35.4275,119.45528,CN,246387,1705
22071,Southampton,50.90395,-1.40428,GB,246201,1706
22070,A Coruna,43.37135,-8.396,ES,246056,1707
22069,Mau,25.94167,83.56111,IN,246050,1708
22068,Shimonoseki,33.95,130.95,JP,245786,1709
22067,Juliaca,-15.5,-70.13333,PE,245675,1710
22066,Nicolas Romero,19.64177,-99.3068,MX,245383,1711
22065,Ji'an,27.11716,114.97927,CN,245000,1712
22064,Nizhnevartovsk,60.9344,76.5531,RU,244937,1713
22063,Gorgan,36.8427,54.44391,IR,244937,1714
22062,Braunschweig,52.26594,10.52673,DE,244715,1715
22061,Hebi,35.89917,114.1925,CN,244662,1716
22060,Bago,17.33521,96.48135,MM,244376,1717
22059,Bihar Sharif,25.20084,85.52389,IN,244230,1718
22058,Baruta,10.43398,-66.87662,VE,244216,1719
22057,Puente de Vallecas,40.39354,-3.662,ES,244151,1720
22056,Trabzon,41.005,39.72694,TR,244083,1721
22055,Jessore,23.16971,89.21371,BD,243987,1722
22054,Manisa,38.61202,27.42647,TR,243971,1723
22053,Louisville,38.25424,-85.75941,US,243639,1724
22052,Santa Luzia,-19.76972,-43.85139,BR,243503,1725
22051,Gunsan,35.97861,126.71139,KR,243406,1726
22050,Wonju,37.35139,127.94528,KR,243387,1727
22049,Angarsk,52.53667,103.88639,RU,243158,1728
22048,Mar'ino,55.65,37.71667,RU,243000,1729
22047,Hapur,28.72985,77.78068,IN,242920,1730
22046,Bathinda,30.20747,74.93893,IN,242800,1731
22045,Deir ez-Zor,35.33588,40.14084,SY,242565,1732
22044,Huayin,34.56528,110.06639,CN,242488,1733
22043,Berbera,10.43959,45.01432,SO,242344,1734
22042,Ojo de Agua,19.68028,-99.01,MX,242272,1735
22041,Gatineau,45.47723,-75.70164,CA,242124,1736
22040,Yibin,28.76667,104.62383,CN,242111,1737
22039,Neuquen,-38.95161,-68.0591,AR,242092,1738
22038,Novorossiysk,44.72439,37.76752,RU,241856,1739
22037,Reno,39.52963,-119.8138,US,241445,1740
22036,Tehuacan,18.46422,-97.39735,MX,241429,1741
22035,Aswan,24.09082,32.89942,EG,241261,1742
22034,Winston-Salem,36.09986,-80.24422,US,241218,1743
22033,Farrukhabad,27.39134,79.5793,IN,241152,1744
22032,Sancaktepe,41.00244,29.23187,TR,241000,1745
22031,Takasaki,36.33333,139.01667,JP,240857,1746
22030,Anantapur,14.67784,77.60813,IN,240442,1747
22029,Buenaventura,3.8801,-77.03116,CO,240387,1748
22028,Lankaran,38.75428,48.85062,AZ,240300,1749
22027,Glendale,33.53865,-112.18599,US,240126,1750
22026,Fuji,35.16667,138.68333,JP,240014,1751
22025,Khimki,55.89704,37.42969,RU,239967,1752
22024,Blackpool,53.81667,-3.05,GB,239409,1753
22023,Xiantao,30.3708,113.44294,CN,239406,1754
22022,Hachinohe,40.5,141.5,JP,239046,1755
22021,Vaughan,43.8361,-79.49827,CA,238866,1756
22020,Gravatai,-29.94218,-50.99278,BR,238778,1757
22019,Neyagawa,34.76615,135.62759,JP,238549,1758
22018,Nagarpur,24.05783,89.87696,BD,238422,1759
22017,Kurume,33.31667,130.51667,JP,238197,1760
22016,Balikesir,39.64917,27.88611,TR,238151,1761
22015,Temuco,-38.73965,-72.59842,CL,238129,1762
22014,Krefeld,51.33645,6.55381,DE,237984,1763
22013,Seeb,23.67027,58.18911,OM,237816,1764
22012,Barasat,22.22516,88.45086,IN,237783,1765
22011,Arhus,56.15674,10.21076,DK,237551,1766
22010,Sasebo,33.15917,129.72278,JP,237444,1767
22009,Batangas,13.7567,121.0584,PH,237370,1768
22008,Uruapan,19.41116,-102.05644,MX,237308,1769
22007,Al Jubayl,27.01122,49.65825,SA,237274,1770
22006,Pathein,16.77919,94.73212,MM,237089,1771
22005,Tegal,-6.8694,109.1402,ID,237084,1772
22004,Hialeah,25.8576,-80.27811,US,237069,1773
22003,Djougou,9.70853,1.66598,BJ,237040,1774
22002,Sylhet,24.89904,91.87198,BD,237000,1775
22001,Garland,32.91262,-96.63888,US,236897,1776
22000,Ratlam,23.33033,75.04032,IN,236843,1777
21999,Scottsdale,33.50921,-111.89903,US,236839,1778
21998,Irving,32.81402,-96.94889,US,236607,1779
21997,Kosice,48.71395,21.25808,SK,236563,1780
21996,Chernivtsi,48.29149,25.94034,UA,236250,1781
21995,Dera Ghazi Khan,30.05614,70.63477,PK,236093,1782
21994,Yuci,37.68028,112.73194,CN,235929,1783
21993,Sant Marti,41.41814,2.19933,ES,235719,1784
21992,Sahiwal,30.66667,73.1,PK,235695,1785
21991,Ternopil',49.55589,25.60556,UA,235676,1786
21990,Gasteiz / Vitoria,42.84998,-2.67268,ES,235661,1787
21989,Yakutsk,62.03389,129.73306,RU,235600,1788
21988,Chesapeake,36.81904,-76.27494,US,235429,1789
21987,Caruaru,-8.28333,-35.97611,BR,235371,1790
21986,Qina,26.16418,32.72671,EG,235362,1791
21985,Boa Vista,2.81972,-60.67333,BR,235150,1792
21984,Kediri,-7.81667,112.01667,ID,235143,1793
21983,Georgetown,6.80448,-58.15527,GY,235017,1794
21982,Ramagundam,18.755,79.474,IN,235000,1795
21981,Kismayo,-0.35817,42.54536,SO,234852,1796
21980,Ibb,13.96667,44.18333,YE,234837,1797
21979,Turkmenabat,39.07328,63.57861,TM,234817,1798
21978,North Las Vegas,36.19886,-115.1175,US,234807,1799
21977,Granada,37.18817,-3.60667,ES,234325,1800
21976,Nizhnekamsk,55.63657,51.82447,RU,234297,1801
21975,Porto-Novo,6.49646,2.60359,BJ,234168,1802
21974,Halle (Saale),51.48158,11.97947,DE,234107,1803
21973,Kitchener,43.42537,-80.5112,CA,233700,1804
21972,Centurion,-25.85891,28.18577,ZA,233386,1805
21971,Magugpo,7.4475,125.8046,PH,233254,1806
21970,Hamburg-Mitte,53.55,10.01667,DE,233144,1807
21969,Dzerzhinsk,56.24143,43.45539,RU,233126,1808
21968,Takoradi,4.88447,-1.75536,GH,232919,1809
21967,Kiel,54.32133,10.13489,DE,232758,1810
21966,Linfen,36.08889,111.51889,CN,232566,1811
21965,Fremont,37.54827,-121.98857,US,232206,1812
21964,Bordeaux,44.84044,-0.5805,FR,231844,1813
21963,Ganganagar,29.92009,73.87496,IN,231838,1814
21962,Chigasaki,35.33638,139.40434,JP,231657,1815
21961,Gent,51.05,3.71667,BE,231493,1816
21960,Taytay,14.55883,121.13285,PH,231460,1817
21959,Soka,35.83643,139.79957,JP,231445,1818
21958,Ngaoundere,7.32765,13.58472,CM,231357,1819
21957,Suncheon,34.94808,127.48947,KR,230796,1820
21956,Coatzacoalcos,18.13346,-94.44242,MX,230717,1821
21955,Sejong,36.59245,127.29223,KR,230327,1822
21954,Syktyvkar,61.67642,50.80994,RU,230139,1823
21953,Elche,38.26218,-0.70107,ES,230112,1824
21952,Marka,1.71594,44.77166,SO,230100,1825
21951,Nukus,42.45306,59.61028,UZ,230006,1826
21950,Halwan,29.84144,31.30084,EG,230000,1827
21949,Milton Keynes,52.04172,-0.75583,GB,229941,1828
21948,Magdeburg,52.12773,11.62916,DE,229826,1829
21947,Nawabshah,26.23939,68.40369,PK,229504,1830
21946,Tripoli,34.43667,35.84972,LB,229398,1831
21945,Bharatpur,27.21731,77.49009,IN,229384,1832
21944,Longueuil,45.53121,-73.51806,CA,229330,1833
21943,Atsugi,35.44272,139.36931,JP,229199,1834
21942,Croix-des-Bouquets,18.57677,-72.22625,HT,229127,1835
21941,Magdalena Contreras,19.33212,-99.21118,MX,228927,1836
21940,Uitenhage,-33.75757,25.3971,ZA,228912,1837
21939,Ploiesti,44.95,26.01667,RO,228851,1838
21938,Sungai Petani,5.647,100.48772,MY,228843,1839
21937,Binjai,3.6001,98.4854,ID,228763,1840
21936,Lucena,13.93139,121.61722,PH,228758,1841
21935,Ipatinga,-19.46833,-42.53667,BR,228746,1842
21934,Karimnagar,18.43915,79.12856,IN,228745,1843
21933,Baton Rouge,30.45075,-91.15455,US,228590,1844
21932,Gomez Palacio,25.56985,-103.49588,MX,228577,1845
21931,Rach Gia,10.01245,105.08091,VN,228356,1846
21930,Lille,50.63297,3.05858,FR,228328,1847
21929,Miri,4.39928,113.99163,MY,228212,1848
21928,Ciudad Lineal,40.44505,-3.65132,ES,228171,1849
21927,Bexley,51.44162,0.14866,GB,228000,1850
21926,Sumare,-22.82194,-47.26694,BR,227977,1851
21925,Damanhur,31.03408,30.46823,EG,227943,1852
21924,Nassau,25.05823,-77.34306,BS,227940,1853
21923,San Lorenzo,-25.33968,-57.50879,PY,227876,1854
21922,Iquique,-20.22036,-70.13913,CL,227499,1855
21921,Kremenchuk,49.06802,33.42041,UA,227494,1856
21920,Puducherry,11.93381,79.82979,IN,227411,1857
21919,Sosnowiec,50.28682,19.10385,PL,227295,1858
21918,Diez de Octubre,23.0881,-82.3597,CU,227293,1859
21917,Al Minya,28.10988,30.7503,EG,227150,1860
21916,Staryy Oskol,51.29667,37.84167,RU,226977,1861
21915,Liaocheng,36.45596,115.97766,CN,226930,1862
21914,Gusau,12.17024,6.66412,NG,226857,1863
21913,Neue Neustadt,52.15,11.63333,DE,226851,1864
21912,Radom,51.40253,21.14714,PL,226794,1865
21911,Shrirampur,22.75278,88.34222,IN,226317,1866
21910,Fendou,46.64142,124.86283,CN,226298,1867
21909,Sabzevar,36.2126,57.68191,IR,226183,1868
21908,Ajman,25.41111,55.43504,AE,226172,1869
21907,Huambo,-12.77611,15.73917,AO,226145,1870
21906,Groznyy,43.31195,45.68895,RU,226100,1871
21905,Geelong,-38.14711,144.36069,AU,226034,1872
21904,Raichur,16.20546,77.35567,IN,225962,1873
21903,Huanggang,23.67704,116.99961,CN,225956,1874
21902,Quthbullapur,17.50107,78.45818,IN,225816,1875
21901,Mubi,10.26858,13.26701,NG,225705,1876
21900,Sector 1,44.49239,26.04831,RO,225453,1877
21899,Bukavu,-2.49077,28.84281,CD,225389,1878
21898,Lexington,37.98869,-84.47772,US,225366,1879
21897,Juazeiro do Norte,-7.21306,-39.31528,BR,225230,1880
21896,Mymensingh,24.75636,90.40646,BD,225126,1881
21895,Karnal,29.69197,76.98448,IN,225049,1882
21894,Roodepoort,-26.1625,27.8725,ZA,225000,1883
21893,Tanga,-5.06893,39.09875,TZ,224876,1884
21892,Jingling,30.65,113.1,CN,224871,1885
21891,Sucre,-19.03332,-65.26274,BO,224838,1886
21890,Nacala,-14.56257,40.68538,MZ,224795,1887
21889,Ashdod,31.79213,34.64966,IL,224656,1888
21888,Minamirinkan,35.49527,139.44279,JP,224015,1889
21887,Oviedo,43.36029,-5.84476,ES,224005,1890
21886,Paramaribo,5.86638,-55.16682,SR,223757,1891
21885,Adiyaman,37.76441,38.27629,TR,223744,1892
21884,Arrah,25.55629,84.66335,IN,223676,1893
21883,Okara,30.81029,73.45155,PK,223648,1894
21882,Narayanganj,23.61352,90.50298,BD,223622,1895
21881,Tongchuanshi,35.07474,109.08495,CN,223603,1896
21880,Imphal,24.80805,93.9442,IN,223523,1897
21879,Najafabad,32.6344,51.3668,IR,223450,1898
21878,Paradise,36.09719,-115.14666,US,223167,1899
21877,Qarshi,38.86056,65.78905,UZ,222898,1900
21876,Gosaba,22.16547,88.8007,IN,222764,1901
21875,Puerto Princesa,9.73917,118.73528,PH,222673,1902
21874,Xintai,35.90056,117.75194,CN,222459,1903
21873,Santa Cruz de Tenerife,28.46824,-16.25462,ES,222417,1904
21872,Haeju,38.04056,125.71472,KP,222396,1905
21871,Graz,47.06667,15.45,AT,222326,1906
21870,Ikire,7.37241,4.18739,NG,222160,1907
21869,Embu,-23.64889,-46.85222,BR,221733,1908
21868,Formosa,-26.17753,-58.17814,AR,221383,1909
21867,Shakhty,47.70911,40.21443,RU,221312,1910
21866,Blagoveshchensk,50.27961,127.5405,RU,221296,1911
21865,Olongapo,14.82917,120.28278,PH,221178,1912
21864,Banja Luka,44.77842,17.19386,BA,221106,1913
21863,Nishabur,36.21329,58.79575,IR,220929,1914
21862,Wuxue,29.85058,115.5525,CN,220661,1915
21861,Babruysk,53.1384,29.2214,BY,220517,1916
21860,Rishon LeZiyyon,31.97102,34.78939,IL,220492,1917
21859,Richmond,37.55376,-77.46026,US,220289,1918
21858,Cabanatuan City,15.48586,120.96648,PH,220250,1919
21857,Fuencarral-El Pardo,40.4984,-3.7314,ES,220085,1920
21856,Mirzapur,25.1449,82.56534,IN,220029,1921
21855,Messina,38.19394,15.55256,IT,219948,1922
21854,Dehiwala-Mount Lavinia,6.84019,79.87116,LK,219827,1923
21853,Mount Lavinia,6.83947,79.86451,LK,219827,1924
21852,Takarazuka,34.79936,135.35697,JP,219789,1925
21851,Kharagpur,22.33971,87.32501,IN,219665,1926
21850,Dhanbad,23.80199,86.44324,IN,219636,1927
21849,Thanjavur,10.78523,79.13909,IN,219571,1928
21848,Badalona,41.45004,2.24741,ES,219547,1929
21847,Ageoshimo,35.97145,139.61382,JP,219401,1930
21846,Binangonan,14.4646,121.1929,PH,219204,1931
21845,Oberhausen,51.47805,6.8625,DE,219176,1932
21844,Chon Buri,13.3622,100.98345,TH,219164,1933
21843,Verona,45.4299,10.98444,IT,219103,1934
21842,Prokop'yevsk,53.9059,86.719,RU,219000,1935
21841,Eldoret,0.52036,35.26993,KE,218446,1936
21840,Wuhai,39.68442,106.81583,CN,218427,1937
21839,Bertoua,4.57728,13.68459,CM,218111,1938
21838,Imperatriz,-5.52639,-47.49167,BR,218106,1939
21837,San Pedro de Macoris,18.46156,-69.29718,DO,217899,1940
21836,Amarnath,19.2,73.16667,IN,217780,1941
21835,Taiping,4.85,100.73333,MY,217647,1942
21834,Alor Setar,6.12104,100.36014,MY,217368,1943
21833,Purwokerto,-7.42139,109.23444,ID,217222,1944
21832,Colombo,-25.29167,-49.22417,BR,217000,1945
21831,Jamaica,40.69149,-73.80569,US,216866,1946
21830,Rybinsk,58.0446,38.84259,RU,216724,1947
21829,Hobart,-42.87936,147.32941,AU,216656,1948
21828,Santa Rosa,14.31222,121.11139,PH,216650,1949
21827,Kisumu,-0.10221,34.76171,KE,216479,1950
21826,San Bernardino,34.10834,-117.28977,US,216108,1951
21825,Imus,14.42972,120.93667,PH,216099,1952
21824,Vykhino-Zhulebino,55.70196,37.81178,RU,216000,1953
21823,Freiburg,47.9959,7.85222,DE,215966,1954
21822,Northampton,52.25,-0.88333,GB,215963,1955
21821,Galkissa,6.8293,79.863,LK,215941,1956
21820,Purwakarta,-6.55694,107.44333,ID,215803,1957
21819,Zelenograd,55.9825,37.18139,RU,215727,1958
21818,Mirpur Khas,25.5251,69.0159,PK,215657,1959
21817,Daloa,6.87735,-6.45022,CI,215652,1960
21816,Mek'ele,13.49667,39.47528,ET,215546,1961
21815,Biysk,52.53639,85.20722,RU,215430,1962
21814,Concepcion,-36.82699,-73.04977,CL,215413,1963
21813,Novi Sad,45.25167,19.83694,RS,215400,1964
21812,Jinzhou,39.1,121.71667,CN,215386,1965
21811,Mucumpiz,8.41667,-71.13333,VE,215259,1966
21810,Velikiy Novgorod,58.52131,31.27104,RU,215062,1967
21809,Owerri,5.48363,7.03325,NG,215038,1968
21808,Centralniy,59.93111,30.36072,RU,214625,1969
21807,Los Mochis,25.79302,-108.99808,MX,214601,1970
21806,Shagamu,6.8485,3.64633,NG,214558,1971
21805,Taboao da Serra,-23.62611,-46.79167,BR,214523,1972
21804,Nazret,8.55,39.26667,ET,213995,1973
21803,Nagercoil,8.17731,77.43437,IN,213858,1974
21802,Luts'k,50.75932,25.34244,UA,213661,1975
21801,Bergen,60.39299,5.32415,NO,213585,1976
21800,Braila,45.26667,27.98333,RO,213569,1977
21799,Nazarabad,35.95411,50.60607,IR,213388,1978
21798,Guangyuan,32.44201,105.823,CN,213365,1979
21797,Bukan,36.521,46.2089,IR,213331,1980
21796,Spokane,47.65966,-117.42908,US,213272,1981
21795,Norwich,52.62783,1.29834,GB,213166,1982
21794,Jacarei,-23.30528,-45.96583,BR,213110,1983
21793,Chofugaoka,35.65924,139.54837,JP,212977,1984
21792,Loa Janan,-0.58295,117.09503,ID,212816,1985
21791,Rancagua,-34.17083,-70.74444,CL,212695,1986
21790,Mokotow,52.1934,21.03487,PL,212670,1987
21789,Birmingham,33.52066,-86.80249,US,212461,1988
21788,Bukit Mertajam,5.36301,100.4667,MY,212329,1989
21787,Lipa City,13.9411,121.1631,PH,212287,1990
21786,Marilia,-22.21389,-49.94583,BR,212218,1991
21785,Luebeck,53.86893,10.68729,DE,212207,1992
21784,Sepang,2.6931,101.7498,MY,212050,1993
21783,Cartagena,37.60512,-0.98623,ES,211996,1994
21782,Esenyurt,41.02697,28.67732,TR,211330,1995
21781,Modesto,37.6391,-120.99688,US,211266,1996
21780,Kirikkale,39.84528,33.50639,TR,211138,1997
21779,Hailar,49.2,119.7,CN,211066,1998
21778,Terrassa,41.56667,2.01667,ES,210941,1999
21777,Abha,18.21639,42.50528,SA,210886,2000
2000,La Vista,41.18389,-96.03113,US,16921,2001
1999,Tassin-la-Demi-Lune,45.75499,4.78812,FR,16920,2002
1998,Bundibugyo,0.71117,30.06469,UG,16919,2003
1997,Malampaka,-3.13333,33.53333,TZ,16916,2004
1996,Gemerek,39.18342,36.07189,TR,16916,2005
1995,Ntungamo,-0.88333,29.65,UG,16915,2006
1994,Trzcianka,53.04063,16.45629,PL,16914,2007
1993,Zaghouan,36.40291,10.14292,TN,16911,2008
1992,Riachao do Jacuipe,-11.80694,-39.38556,BR,16911,2009
1991,La Concepcion,8.51212,-82.61858,PA,16910,2010
1990,Bad Reichenhall,47.72947,12.87819,DE,16910,2011
1989,Zarumilla,-3.50306,-80.27306,PE,16907,2012
1988,Hanover,42.11316,-70.81199,US,16906,2013
1987,Tanakpur,29.074,80.11139,IN,16905,2014
1986,Palau,27.89232,-101.42319,MX,16904,2015
1985,Piossasco,44.98802,7.4601,IT,16904,2016
1984,Lugoba,-6.45,38.33333,TZ,16902,2017
1983,Letterkenny,54.95,-7.73333,IE,16901,2018
1982,Tanque Verde,32.25174,-110.73731,US,16901,2019
1981,Hincesti,46.83047,28.59064,MD,16900,2020
1980,San Miniato,43.67954,10.84975,IT,16900,2021
1979,Qalansuwa,32.28493,34.98106,IL,16898,2022
1978,Glenvar Heights,25.7076,-80.32561,US,16898,2023
1977,Pridonskoy,51.68406,39.0727,RU,16896,2024
1976,Krasnoobsk,54.9198,82.9909,RU,16894,2025
1975,Ngara,-2.51222,30.65583,TZ,16890,2026
1974,Torrox,36.75793,-3.95233,ES,16890,2027
1973,Xo`jaobod,40.66886,72.56002,UZ,16889,2028
1972,Hashtrud,37.4779,47.0508,IR,16888,2029
1971,Silva Jardim,-22.65083,-42.39167,BR,16888,2030
1970,Hayling Island,50.7838,-0.96869,GB,16887,2031
1969,Jawad,24.59916,74.86261,IN,16887,2032
1968,Caldes de Montbui,41.63333,2.16667,ES,16885,2033
1967,Pendleton,45.67207,-118.7886,US,16881,2034
1966,Dorchester,50.71667,-2.43333,GB,16879,2035
1965,Sidrolandia,-20.93194,-54.96139,BR,16878,2036
1964,Kutiyana,21.6241,69.98494,IN,16877,2037
1963,Centerville,40.918,-111.87216,US,16877,2038
1962,Rasunda,59.36588,17.99569,SE,16877,2039
